,name,number,address,lat,lng,total
0,병/의원명, 전화번호, 주소  ,0.0,0.0,"{'name': '병/의원명', 'number': ' 전화번호', 'address': ' 주소  ', 'lat': 0.0, 'lng': 0.0}"
1,21세기소아청소년과의원, 033-745-0815, 강원도 원주시 봉화로 27 단계동 ,127.9283262,37.3469313,"{'name': '21세기소아청소년과의원', 'number': ' 033-745-0815', 'address': ' 강원도 원주시 봉화로 27 단계동 ', 'lat': 127.9283262, 'lng': 37.3469313}"
2,365성모가정의학과의원, 033-251-3500, 강원도 춘천시 후석로 352 후평동 국제빌딩2층,127.7486855,37.8820972,"{'name': '365성모가정의학과의원', 'number': ' 033-251-3500', 'address': ' 강원도 춘천시 후석로 352 후평동 국제빌딩2층', 'lat': 127.7486855, 'lng': 37.8820972}"
3,Dr.하석우의한사랑의원, 033-522-2244, 강원도 동해시 효자남길 16 동회동 월드상가1층,129.1087269,37.4877014,"{'name': 'Dr.하석우의한사랑의원', 'number': ' 033-522-2244', 'address': ' 강원도 동해시 효자남길 16 동회동 월드상가1층', 'lat': 129.1087269, 'lng': 37.4877014}"
4,강릉아산병원, 033-610-3799, 강원도 강릉시 사천면 방동길 38  ,128.8578411,37.8184325,"{'name': '강릉아산병원', 'number': ' 033-610-3799', 'address': ' 강원도 강릉시 사천면 방동길 38  ', 'lat': 128.8578411, 'lng': 37.8184325}"
5,강원도 삼척의료원, 033-572-1141, 강원도 삼척시 오십천로 418 남양동 ,129.1638017,37.4403018,"{'name': '강원도 삼척의료원', 'number': ' 033-572-1141', 'address': ' 강원도 삼척시 오십천로 418 남양동 ', 'lat': 129.1638017, 'lng': 37.4403018}"
6,강원도속초의료원, 033-630-6000, 강원도 속초시 영랑호반길 3 영랑동 ,128.5892485,38.2164607,"{'name': '강원도속초의료원', 'number': ' 033-630-6000', 'address': ' 강원도 속초시 영랑호반길 3 영랑동 ', 'lat': 128.5892485, 'lng': 38.2164607}"
7,강훈소아청소년과의원, 033-744-7579, 강원도 원주시 입춘로 110 반곡동 파라다이스프라자301,127.9816729,37.3234153,"{'name': '강훈소아청소년과의원', 'number': ' 033-744-7579', 'address': ' 강원도 원주시 입춘로 110 반곡동 파라다이스프라자301', 'lat': 127.9816729, 'lng': 37.3234153}"
8,개성소아청소년과의원, 033-635-3229, 강원도 속초시 동해대로 4215 교동 ,128.5772842,38.1952331,"{'name': '개성소아청소년과의원', 'number': ' 033-635-3229', 'address': ' 강원도 속초시 동해대로 4215 교동 ', 'lat': 128.5772842, 'lng': 38.1952331}"
9,구곡의원, 033-734-6180, 강원도 원주시 늘품로 6 단구동 청솔1차아파트,127.9502869,37.3209357,"{'name': '구곡의원', 'number': ' 033-734-6180', 'address': ' 강원도 원주시 늘품로 6 단구동 청솔1차아파트', 'lat': 127.9502869, 'lng': 37.3209357}"
10,구철회내과의원, 033-244-3500, 강원도 춘천시 춘천로 188 효자동 ,127.7352233,37.876082,"{'name': '구철회내과의원', 'number': ' 033-244-3500', 'address': ' 강원도 춘천시 춘천로 188 효자동 ', 'lat': 127.7352233, 'lng': 37.876082}"
11,근로복지공단 태백병원, 033-580-3114, 강원도 태백시 보드미길 8 장성동 ,129.0043366,37.1040964,"{'name': '근로복지공단 태백병원', 'number': ' 033-580-3114', 'address': ' 강원도 태백시 보드미길 8 장성동 ', 'lat': 129.0043366, 'lng': 37.1040964}"
12,기린소아청소년과의원, 033-432-7208, 강원도 홍천군 홍천읍 홍천로 321 안정스의트타워2층203호 ,127.8807723,37.6889055,"{'name': '기린소아청소년과의원', 'number': ' 033-432-7208', 'address': ' 강원도 홍천군 홍천읍 홍천로 321 안정스의트타워2층203호 ', 'lat': 127.8807723, 'lng': 37.6889055}"
13,김대균의원, 033-735-9201, 강원도 원주시 단구로 404 단구동2층 ,127.9550094,37.3208904,"{'name': '김대균의원', 'number': ' 033-735-9201', 'address': ' 강원도 원주시 단구로 404 단구동2층 ', 'lat': 127.9550094, 'lng': 37.3208904}"
14,김소아청소년과의원, 033-637-1800, 강원도 속초시 청대로 347 교동 ,128.5721888,38.1974651,"{'name': '김소아청소년과의원', 'number': ' 033-637-1800', 'address': ' 강원도 속초시 청대로 347 교동 ', 'lat': 128.5721888, 'lng': 38.1974651}"
15,꾸러기소아과의원, 033-531-0222, 강원도 동해시 중앙로 249 천곡동 ,129.1134223,37.522743,"{'name': '꾸러기소아과의원', 'number': ' 033-531-0222', 'address': ' 강원도 동해시 중앙로 249 천곡동 ', 'lat': 129.1134223, 'lng': 37.522743}"
16,나노소아청소년과의원, 033-575-9410, 강원도 삼척시 진주로 29 남양동 동일빌딩302호,129.1637643,37.4432875,"{'name': '나노소아청소년과의원', 'number': ' 033-575-9410', 'address': ' 강원도 삼척시 진주로 29 남양동 동일빌딩302호', 'lat': 129.1637643, 'lng': 37.4432875}"
17,나라연소아청소년과의원, 033-745-0997, 강원도 원주시 시청로 84 무실동 ,127.9280529,37.3363633,"{'name': '나라연소아청소년과의원', 'number': ' 033-745-0997', 'address': ' 강원도 원주시 시청로 84 무실동 ', 'lat': 127.9280529, 'lng': 37.3363633}"
18,나소아과의원, 033-572-7988, 강원도 삼척시 청석로 63 교동 ,129.1757335,37.4481935,"{'name': '나소아과의원', 'number': ' 033-572-7988', 'address': ' 강원도 삼척시 청석로 63 교동 ', 'lat': 129.1757335, 'lng': 37.4481935}"
19,난소아청소년과의원, 033-646-2730, 강원도 강릉시 범일로 604 내곡동 하나로마트2층,128.8808217,37.7412779,"{'name': '난소아청소년과의원', 'number': ' 033-646-2730', 'address': ' 강원도 강릉시 범일로 604 내곡동 하나로마트2층', 'lat': 128.8808217, 'lng': 37.7412779}"
20,누가이비인후과의원, 033-535-3600, 강원도 동해시 한섬로 111-7 천곡동 현진빌딩3층,129.1152178,37.5222543,"{'name': '누가이비인후과의원', 'number': ' 033-535-3600', 'address': ' 강원도 동해시 한섬로 111-7 천곡동 현진빌딩3층', 'lat': 129.1152178, 'lng': 37.5222543}"
21,누누베베소아과의원, 033-254-2266, 강원도 춘천시 충열로 39 우두동 ,127.7327187,37.8994774,"{'name': '누누베베소아과의원', 'number': ' 033-254-2266', 'address': ' 강원도 춘천시 충열로 39 우두동 ', 'lat': 127.7327187, 'lng': 37.8994774}"
22,다나의원, 033-653-7572, 강원도 강릉시 월대산로 56-7 입암동 ,128.916971,37.7593905,"{'name': '다나의원', 'number': ' 033-653-7572', 'address': ' 강원도 강릉시 월대산로 56-7 입암동 ', 'lat': 128.916971, 'lng': 37.7593905}"
23,다사랑의원, 033-244-8275, 강원도 춘천시 영서로 2779 우두동 ,127.7284277,37.9013552,"{'name': '다사랑의원', 'number': ' 033-244-8275', 'address': ' 강원도 춘천시 영서로 2779 우두동 ', 'lat': 127.7284277, 'lng': 37.9013552}"
24,더사랑소아청소년과의원, 033-732-2693, 강원도 원주시 오리현길 16-9 반곡동1층 ,127.9677949,37.3386155,"{'name': '더사랑소아청소년과의원', 'number': ' 033-732-2693', 'address': ' 강원도 원주시 오리현길 16-9 반곡동1층 ', 'lat': 127.9677949, 'lng': 37.3386155}"
25,도담내과의원, 033-744-4901, 강원도 원주시 모란1길 70 우산동 수정프라자203층,127.9333489,37.3617393,"{'name': '도담내과의원', 'number': ' 033-744-4901', 'address': ' 강원도 원주시 모란1길 70 우산동 수정프라자203층', 'lat': 127.9333489, 'lng': 37.3617393}"
26,도담도담소아청소년과의원, 033-648-7271, 강원도 강릉시 경강로 2109 임당동 문선빌딩4층,128.8972134,37.7556773,"{'name': '도담도담소아청소년과의원', 'number': ' 033-648-7271', 'address': ' 강원도 강릉시 경강로 2109 임당동 문선빌딩4층', 'lat': 128.8972134, 'lng': 37.7556773}"
27,도홍림이비인후과의원, 033-734-7522, 강원도 원주시 무실로 8 일산동 명동프라자4층,127.9489794,37.3489558,"{'name': '도홍림이비인후과의원', 'number': ' 033-734-7522', 'address': ' 강원도 원주시 무실로 8 일산동 명동프라자4층', 'lat': 127.9489794, 'lng': 37.3489558}"
28,두리의원, 033-263-7582, 강원도 춘천시 안마산로 199 퇴계동3층302호 ,127.7364752,37.8504981,"{'name': '두리의원', 'number': ' 033-263-7582', 'address': ' 강원도 춘천시 안마산로 199 퇴계동3층302호 ', 'lat': 127.7364752, 'lng': 37.8504981}"
29,류상우소아청소년과의원, 033-553-2094, 강원도 태백시 연지로 21 황지동 ,128.9893745,37.1757031,"{'name': '류상우소아청소년과의원', 'number': ' 033-553-2094', 'address': ' 강원도 태백시 연지로 21 황지동 ', 'lat': 128.9893745, 'lng': 37.1757031}"
30,미래산부인과의원, 033-241-7677, 강원도 춘천시 중앙로 118 소양로4가 ,127.7220293,37.8767664,"{'name': '미래산부인과의원', 'number': ' 033-241-7677', 'address': ' 강원도 춘천시 중앙로 118 소양로4가 ', 'lat': 127.7220293, 'lng': 37.8767664}"
31,박유인소아청소년과의원, 033-641-2391, 강원도 강릉시 솔올로 25 교동2층 ,128.8776272,37.7642131,"{'name': '박유인소아청소년과의원', 'number': ' 033-641-2391', 'address': ' 강원도 강릉시 솔올로 25 교동2층 ', 'lat': 128.8776272, 'lng': 37.7642131}"
32,밝은미래의원, 033-481-2575, 강원도 양구군 양구읍 사명길 32  밝은미래의원  ,127.9884012,38.1037079,"{'name': '밝은미래의원', 'number': ' 033-481-2575', 'address': ' 강원도 양구군 양구읍 사명길 32  밝은미래의원  ', 'lat': 127.9884012, 'lng': 38.1037079}"
33,봄내아이소아청소년과의원, 033-264-1191, 강원도 춘천시 지석로 11 퇴계동 ,127.7375201,37.8535306,"{'name': '봄내아이소아청소년과의원', 'number': ' 033-264-1191', 'address': ' 강원도 춘천시 지석로 11 퇴계동 ', 'lat': 127.7375201, 'lng': 37.8535306}"
34,부부소아청소년과의원, 033-746-5988, 강원도 원주시 문막읍 왕건로 48    ,127.8293112,37.3238795,"{'name': '부부소아청소년과의원', 'number': ' 033-746-5988', 'address': ' 강원도 원주시 문막읍 왕건로 48    ', 'lat': 127.8293112, 'lng': 37.3238795}"
35,사랑나무소아청소년과의원, 033-252-8275, 강원도 춘천시 방송길 84 온의동 롯데마트3층,127.7178694,37.8689361,"{'name': '사랑나무소아청소년과의원', 'number': ' 033-252-8275', 'address': ' 강원도 춘천시 방송길 84 온의동 롯데마트3층', 'lat': 127.7178694, 'lng': 37.8689361}"
36,서울아산의원, 033-635-6565, 강원도 속초시 중앙로 88-1 청학동 ,128.5857959,38.2013459,"{'name': '서울아산의원', 'number': ' 033-635-6565', 'address': ' 강원도 속초시 중앙로 88-1 청학동 ', 'lat': 128.5857959, 'lng': 38.2013459}"
37,석사성모의원, 033-263-4589, 강원도 춘천시 우석로101번길 86 석사동 석사대우아파트상가205206호,127.7572556,37.8693238,"{'name': '석사성모의원', 'number': ' 033-263-4589', 'address': ' 강원도 춘천시 우석로101번길 86 석사동 석사대우아파트상가205206호', 'lat': 127.7572556, 'lng': 37.8693238}"
38,성가의원, 033-372-4888, 강원도 영월군 영월읍 중앙로 33  번지  ,128.4674216,37.1837072,"{'name': '성가의원', 'number': ' 033-372-4888', 'address': ' 강원도 영월군 영월읍 중앙로 33  번지  ', 'lat': 128.4674216, 'lng': 37.1837072}"
39,성심의원, 033-262-3114, 강원도 춘천시 퇴계로 166 퇴계동 ,127.7374303,37.8581429,"{'name': '성심의원', 'number': ' 033-262-3114', 'address': ' 강원도 춘천시 퇴계로 166 퇴계동 ', 'lat': 127.7374303, 'lng': 37.8581429}"
40,성요셉의원, 033-458-6115, 강원도 철원군 서면 와수1로 12    ,127.436973,38.2379355,"{'name': '성요셉의원', 'number': ' 033-458-6115', 'address': ' 강원도 철원군 서면 와수1로 12    ', 'lat': 127.436973, 'lng': 38.2379355}"
41,세가온산부인과의원, 033-650-9120, 강원도 강릉시 율곡로 2982-6 교동 ,128.8923474,37.7682777,"{'name': '세가온산부인과의원', 'number': ' 033-650-9120', 'address': ' 강원도 강릉시 율곡로 2982-6 교동 ', 'lat': 128.8923474, 'lng': 37.7682777}"
42,세가온소아청소년과의원, 033-655-9393, 강원도 강릉시 율곡로 2982-6 교동1층 ,128.8923474,37.7682777,"{'name': '세가온소아청소년과의원', 'number': ' 033-655-9393', 'address': ' 강원도 강릉시 율곡로 2982-6 교동1층 ', 'lat': 128.8923474, 'lng': 37.7682777}"
43,송소아청소년과의원, 033-633-1621, 강원도 속초시 동해대로 4117 조양동 ,128.5840154,38.1892434,"{'name': '송소아청소년과의원', 'number': ' 033-633-1621', 'address': ' 강원도 속초시 동해대로 4117 조양동 ', 'lat': 128.5840154, 'lng': 38.1892434}"
44,송이비인후과의원, 033-244-7550, 강원도 춘천시 춘주로 143 퇴계동 ,127.724459,37.8589993,"{'name': '송이비인후과의원', 'number': ' 033-244-7550', 'address': ' 강원도 춘천시 춘주로 143 퇴계동 ', 'lat': 127.724459, 'lng': 37.8589993}"
45,신소아청소년과의원, 033-522-3773, 강원도 동해시 효자로 691 효가동 동성프라자308,129.1097088,37.4929224,"{'name': '신소아청소년과의원', 'number': ' 033-522-3773', 'address': ' 강원도 동해시 효자로 691 효가동 동성프라자308', 'lat': 129.1097088, 'lng': 37.4929224}"
46,심소아청소년과의원, 033-264-0369, 강원도 춘천시 동면 춘천순환로 609 3층 ,127.7556461,37.8931677,"{'name': '심소아청소년과의원', 'number': ' 033-264-0369', 'address': ' 강원도 춘천시 동면 춘천순환로 609 3층 ', 'lat': 127.7556461, 'lng': 37.8931677}"
47,아이앤맘소아청소년과의원, 033-645-7512, 강원도 강릉시 옥가로 21 옥천동3 7층,128.8990071,37.7583465,"{'name': '아이앤맘소아청소년과의원', 'number': ' 033-645-7512', 'address': ' 강원도 강릉시 옥가로 21 옥천동3 7층', 'lat': 128.8990071, 'lng': 37.7583465}"
48,애플소아청소년과의원, 033-575-5017, 강원도 삼척시 척주로 9-19 남양동 삼일빌딩가동3층303호,129.1646509,37.4444355,"{'name': '애플소아청소년과의원', 'number': ' 033-575-5017', 'address': ' 강원도 삼척시 척주로 9-19 남양동 삼일빌딩가동3층303호', 'lat': 129.1646509, 'lng': 37.4444355}"
49,양구세브란스 가정의학과의원, 033-482-7755, 강원도 양구군 양구읍 청춘로 11   32  ,0.0,0.0,"{'name': '양구세브란스 가정의학과의원', 'number': ' 033-482-7755', 'address': ' 강원도 양구군 양구읍 청춘로 11   32  ', 'lat': 0.0, 'lng': 0.0}"
50,엄마맘소아청소년과의원, 033-742-1119, 강원도 원주시 양지로 4 반곡동 더조은메디컬빌딩2층202호,127.9788386,37.3254059,"{'name': '엄마맘소아청소년과의원', 'number': ' 033-742-1119', 'address': ' 강원도 원주시 양지로 4 반곡동 더조은메디컬빌딩2층202호', 'lat': 127.9788386, 'lng': 37.3254059}"
51,연규홍소아청소년과의원, 033-746-9005, 강원도 원주시 남원로534번길 26 단구동 중앙빌딩3층,127.9490404,37.3301572,"{'name': '연규홍소아청소년과의원', 'number': ' 033-746-9005', 'address': ' 강원도 원주시 남원로534번길 26 단구동 중앙빌딩3층', 'lat': 127.9490404, 'lng': 37.3301572}"
52,연세고운맘소아청소년과의원, 033-742-9515, 강원도 원주시 시청로 86 무실동 부영골든빌203호,127.9278518,37.3361225,"{'name': '연세고운맘소아청소년과의원', 'number': ' 033-742-9515', 'address': ' 강원도 원주시 시청로 86 무실동 부영골든빌203호', 'lat': 127.9278518, 'lng': 37.3361225}"
53,연세메디컬의원, 033-734-0365, 강원도 원주시 시청로 70 무실동 ,127.9263716,37.3373089,"{'name': '연세메디컬의원', 'number': ' 033-734-0365', 'address': ' 강원도 원주시 시청로 70 무실동 ', 'lat': 127.9263716, 'lng': 37.3373089}"
54,연세소아청소년과의원, 033-641-9508, 강원도 강릉시 금성로22번길 8 금학동 ,128.897785,37.7544997,"{'name': '연세소아청소년과의원', 'number': ' 033-641-9508', 'address': ' 강원도 강릉시 금성로22번길 8 금학동 ', 'lat': 128.897785, 'lng': 37.7544997}"
55,연세이앤피의원, 033-553-6903, 강원도 태백시 황지로 131 황지동 ,128.9919692,37.1706235,"{'name': '연세이앤피의원', 'number': ' 033-553-6903', 'address': ' 강원도 태백시 황지로 131 황지동 ', 'lat': 128.9919692, 'lng': 37.1706235}"
56,연세키즈소아청소년과의원, 033-764-6644, 강원도 원주시 서원대로 402 단구동 대신프라자3층,127.9492947,37.3304617,"{'name': '연세키즈소아청소년과의원', 'number': ' 033-764-6644', 'address': ' 강원도 원주시 서원대로 402 단구동 대신프라자3층', 'lat': 127.9492947, 'lng': 37.3304617}"
57,연세탑이비인후과의원, 033-743-5075, 강원도 원주시 혁신로 55 반곡동207호 ,127.9804354,37.3234325,"{'name': '연세탑이비인후과의원', 'number': ' 033-743-5075', 'address': ' 강원도 원주시 혁신로 55 반곡동207호 ', 'lat': 127.9804354, 'lng': 37.3234325}"
58,오은경소아청소년과의원, 033-765-2027, 강원도 원주시 영랑길 14-2 행구동청연재빌딩5층502호 ,127.9717075,37.3410021,"{'name': '오은경소아청소년과의원', 'number': ' 033-765-2027', 'address': ' 강원도 원주시 영랑길 14-2 행구동청연재빌딩5층502호 ', 'lat': 127.9717075, 'lng': 37.3410021}"
59,온세의원, 033-252-7660, 강원도 춘천시 스포츠타운길 533 온의동 ,127.7146329,37.8691072,"{'name': '온세의원', 'number': ' 033-252-7660', 'address': ' 강원도 춘천시 스포츠타운길 533 온의동 ', 'lat': 127.7146329, 'lng': 37.8691072}"
60,우리가정의원, 033-766-1177, 강원도 원주시 나비허리길 169 관설동2층 ,127.9658403,37.3185011,"{'name': '우리가정의원', 'number': ' 033-766-1177', 'address': ' 강원도 원주시 나비허리길 169 관설동2층 ', 'lat': 127.9658403, 'lng': 37.3185011}"
61,우리들소아청소년과의원, 033-747-0202, 강원도 원주시 감영길 11 일산동 ,127.9500358,37.3474624,"{'name': '우리들소아청소년과의원', 'number': ' 033-747-0202', 'address': ' 강원도 원주시 감영길 11 일산동 ', 'lat': 127.9500358, 'lng': 37.3474624}"
62,우리마을소아청소년과,가정의학과의원, 033-733-2426 강원도원주시능라동길3 무실동,0.0,0.0,"{'name': '우리마을소아청소년과', 'number': '가정의학과의원', 'address': ' 033-733-2426 강원도원주시능라동길3 무실동', 'lat': 0.0, 'lng': 0.0}"
63,우리소아과의원, 033-263-9502, 강원도 춘천시 영서로 2025 석사동 ,127.7457254,37.8525079,"{'name': '우리소아과의원', 'number': ' 033-263-9502', 'address': ' 강원도 춘천시 영서로 2025 석사동 ', 'lat': 127.7457254, 'lng': 37.8525079}"
64,우리아이소아청소년과의원, 033-761-2755, 강원도 원주시 단구로 388 단구동2층 ,127.9560247,37.3221765,"{'name': '우리아이소아청소년과의원', 'number': ' 033-761-2755', 'address': ' 강원도 원주시 단구로 388 단구동2층 ', 'lat': 127.9560247, 'lng': 37.3221765}"
65,우리연합의원, 033-463-5251, 강원도 인제군 기린면 기린로 43-1    ,128.3179864,37.9561646,"{'name': '우리연합의원', 'number': ' 033-463-5251', 'address': ' 강원도 인제군 기린면 기린로 43-1    ', 'lat': 128.3179864, 'lng': 37.9561646}"
66,원주연세의원, 033-766-7881, 강원도 원주시 흥업면 남원로 57  원주연세의원  ,127.9192109,37.3014171,"{'name': '원주연세의원', 'number': ' 033-766-7881', 'address': ' 강원도 원주시 흥업면 남원로 57  원주연세의원  ', 'lat': 127.9192109, 'lng': 37.3014171}"
67,유소아청소년과의원, 033-345-5332, 강원도 횡성군 횡성읍 태기로 25    ,127.9862644,37.4911413,"{'name': '유소아청소년과의원', 'number': ' 033-345-5332', 'address': ' 강원도 횡성군 횡성읍 태기로 25    ', 'lat': 127.9862644, 'lng': 37.4911413}"
68,윤가정의원, 033-455-1777, 강원도 철원군 동송읍 금학로 222 2층 ,127.2181884,38.2084031,"{'name': '윤가정의원', 'number': ' 033-455-1777', 'address': ' 강원도 철원군 동송읍 금학로 222 2층 ', 'lat': 127.2181884, 'lng': 38.2084031}"
69,윤동석내과의원, 033-263-7524, 강원도 춘천시 칠전서길 38-14 칠전동 ,127.7133787,37.8421741,"{'name': '윤동석내과의원', 'number': ' 033-263-7524', 'address': ' 강원도 춘천시 칠전서길 38-14 칠전동 ', 'lat': 127.7133787, 'lng': 37.8421741}"
70,윤화준소아청소년과의원, 033-262-8275, 강원도 춘천시 퇴계농공로 22 석사동 ,127.7441187,37.8512392,"{'name': '윤화준소아청소년과의원', 'number': ' 033-262-8275', 'address': ' 강원도 춘천시 퇴계농공로 22 석사동 ', 'lat': 127.7441187, 'lng': 37.8512392}"
71,율산부인과의원, 033-765-0655, 강원도 원주시 능라동길 61 무실동 정한타워8층,127.9312335,37.3341487,"{'name': '율산부인과의원', 'number': ' 033-765-0655', 'address': ' 강원도 원주시 능라동길 61 무실동 정한타워8층', 'lat': 127.9312335, 'lng': 37.3341487}"
72,의료법인 강릉동인병원, 033-650-6111, 강원도 강릉시 강릉대로419번길 42 포남동 ,128.90735,37.77435,"{'name': '의료법인 강릉동인병원', 'number': ' 033-650-6111', 'address': ' 강원도 강릉시 강릉대로419번길 42 포남동 ', 'lat': 128.90735, 'lng': 37.77435}"
73,이복순의원, 033-455-2262, 강원도 철원군 동송읍 금학로 224-1 3층 ,127.2180672,38.2086842,"{'name': '이복순의원', 'number': ' 033-455-2262', 'address': ' 강원도 철원군 동송읍 금학로 224-1 3층 ', 'lat': 127.2180672, 'lng': 38.2086842}"
74,이소아청소년과의원, 033-662-8636, 강원도 강릉시 주문진읍 주문로 107 2층 ,128.8271895,37.8934539,"{'name': '이소아청소년과의원', 'number': ' 033-662-8636', 'address': ' 강원도 강릉시 주문진읍 주문로 107 2층 ', 'lat': 128.8271895, 'lng': 37.8934539}"
75,이앤신 소아청소년과의원, 033-263-2255, 강원도 춘천시 동내면 춘천순환로 58  메디피아건물 301-2호  ,127.7503301,37.8551213,"{'name': '이앤신 소아청소년과의원', 'number': ' 033-263-2255', 'address': ' 강원도 춘천시 동내면 춘천순환로 58  메디피아건물 301-2호  ', 'lat': 127.7503301, 'lng': 37.8551213}"
76,이이비인후과의원, 033-535-1616, 강원도 동해시 청운1길 51 쇄운동 백봉빌딩2층,129.1088409,37.4862869,"{'name': '이이비인후과의원', 'number': ' 033-535-1616', 'address': ' 강원도 동해시 청운1길 51 쇄운동 백봉빌딩2층', 'lat': 129.1088409, 'lng': 37.4862869}"
77,이정열내과의원, 033-243-7659, 강원도 춘천시 춘주로 151 퇴계동2층 ,127.7251478,37.8586309,"{'name': '이정열내과의원', 'number': ' 033-243-7659', 'address': ' 강원도 춘천시 춘주로 151 퇴계동2층 ', 'lat': 127.7251478, 'lng': 37.8586309}"
78,이현철소아청소년과의원, 033-636-0282, 강원도 속초시 동해대로 4147 조양동비동3층 ,128.5805187,38.1895574,"{'name': '이현철소아청소년과의원', 'number': ' 033-636-0282', 'address': ' 강원도 속초시 동해대로 4147 조양동비동3층 ', 'lat': 128.5805187, 'lng': 38.1895574}"
79,이호영소아청소년과의원, 033-635-6030, 강원도 속초시 청학로 47 청학동 ,128.5828453,38.2023059,"{'name': '이호영소아청소년과의원', 'number': ' 033-635-6030', 'address': ' 강원도 속초시 청학로 47 청학동 ', 'lat': 128.5828453, 'lng': 38.2023059}"
80,이화코난소아청소년과의원, 033-553-7119, 강원도 태백시 번영로 359-1 황지동 ,128.992796,37.1717717,"{'name': '이화코난소아청소년과의원', 'number': ' 033-553-7119', 'address': ' 강원도 태백시 번영로 359-1 황지동 ', 'lat': 128.992796, 'lng': 37.1717717}"
81,인구보건복지협회강원지회가족보건의원, 033-260-8900, 강원도 춘천시 김유정로 1846 퇴계동 ,127.7345608,37.8515894,"{'name': '인구보건복지협회강원지회가족보건의원', 'number': ' 033-260-8900', 'address': ' 강원도 춘천시 김유정로 1846 퇴계동 ', 'lat': 127.7345608, 'lng': 37.8515894}"
82,정선군립병원, 033-592-3121, 강원도 정선군 사북읍 지장천로 727    ,128.8261822,37.2257003,"{'name': '정선군립병원', 'number': ' 033-592-3121', 'address': ' 강원도 정선군 사북읍 지장천로 727    ', 'lat': 128.8261822, 'lng': 37.2257003}"
83,조소아청소년과의원, 033-644-8256, 강원도 강릉시 교동광장로 105 교동 ,128.876436,37.7650697,"{'name': '조소아청소년과의원', 'number': ' 033-644-8256', 'address': ' 강원도 강릉시 교동광장로 105 교동 ', 'lat': 128.876436, 'lng': 37.7650697}"
84,진부연세내과의원, 033-335-7040, 강원도 평창군 진부면 진부중앙로 80  -  ,0.0,0.0,"{'name': '진부연세내과의원', 'number': ' 033-335-7040', 'address': ' 강원도 평창군 진부면 진부중앙로 80  -  ', 'lat': 0.0, 'lng': 0.0}"
85,철원병원, 033-452-5011, 강원도 철원군 갈말읍 명성로 208-0    ,0.0,0.0,"{'name': '철원병원', 'number': ' 033-452-5011', 'address': ' 강원도 철원군 갈말읍 명성로 208-0    ', 'lat': 0.0, 'lng': 0.0}"
86,최원규소아청소년과의원, 033-734-9595, 강원도 원주시 원일로115번길 5 일산동 ,127.9480168,37.3495865,"{'name': '최원규소아청소년과의원', 'number': ' 033-734-9595', 'address': ' 강원도 원주시 원일로115번길 5 일산동 ', 'lat': 127.9480168, 'lng': 37.3495865}"
87,키즈메디소아청소년과의원, 033-433-9933, 강원도 홍천군 홍천읍 홍천로 326  키즈메디소아청소년과의원  ,127.8816456,37.6880778,"{'name': '키즈메디소아청소년과의원', 'number': ' 033-433-9933', 'address': ' 강원도 홍천군 홍천읍 홍천로 326  키즈메디소아청소년과의원  ', 'lat': 127.8816456, 'lng': 37.6880778}"
88,키즈메디소아청소년과의원, 033-742-0707, 강원도 원주시 능라동길 61 무실동정한타워3층301호 ,127.9312335,37.3341487,"{'name': '키즈메디소아청소년과의원', 'number': ' 033-742-0707', 'address': ' 강원도 원주시 능라동길 61 무실동정한타워3층301호 ', 'lat': 127.9312335, 'lng': 37.3341487}"
89,탑속편한의원, 033-635-5266, 강원도 속초시 미시령로3359번길 20 교동2층201호 ,128.5746259,38.2070773,"{'name': '탑속편한의원', 'number': ' 033-635-5266', 'address': ' 강원도 속초시 미시령로3359번길 20 교동2층201호 ', 'lat': 128.5746259, 'lng': 38.2070773}"
90,튼튼소아청소년과의원, 033-554-3335, 강원도 태백시 서황지로 4 황지동 한마음산부인과3층,128.9901659,37.1719974,"{'name': '튼튼소아청소년과의원', 'number': ' 033-554-3335', 'address': ' 강원도 태백시 서황지로 4 황지동 한마음산부인과3층', 'lat': 128.9901659, 'lng': 37.1719974}"
91,튼튼의원, 033-482-8275, 강원도 양구군 양구읍 사명길 50-10  튼튼의원  ,127.9887121,38.1043564,"{'name': '튼튼의원', 'number': ' 033-482-8275', 'address': ' 강원도 양구군 양구읍 사명길 50-10  튼튼의원  ', 'lat': 127.9887121, 'lng': 38.1043564}"
92,편안한이내과의원, 033-458-8275, 강원도 철원군 서면 와수로 164-1 164 ,127.4382874,38.2382267,"{'name': '편안한이내과의원', 'number': ' 033-458-8275', 'address': ' 강원도 철원군 서면 와수로 164-1 164 ', 'lat': 127.4382874, 'lng': 38.2382267}"
93,푸른솔의원, 033-747-8259, 강원도 원주시 천사로 50 단계동2층 ,127.9309948,37.3475692,"{'name': '푸른솔의원', 'number': ' 033-747-8259', 'address': ' 강원도 원주시 천사로 50 단계동2층 ', 'lat': 127.9309948, 'lng': 37.3475692}"
94,한림대학교부속 춘천성심병원, 033-240-5000, 강원도 춘천시 삭주로 77 교동 ,127.7399592,37.8840791,"{'name': '한림대학교부속 춘천성심병원', 'number': ' 033-240-5000', 'address': ' 강원도 춘천시 삭주로 77 교동 ', 'lat': 127.7399592, 'lng': 37.8840791}"
95,한림의원, 033-462-4261, 강원도 인제군 북면 원통로 218  -  ,0.0,0.0,"{'name': '한림의원', 'number': ' 033-462-4261', 'address': ' 강원도 인제군 북면 원통로 218  -  ', 'lat': 0.0, 'lng': 0.0}"
96,한마음소아청소년과의원, 033-241-3667, 강원도 춘천시 후석로 326 후평동5층 ,127.7500925,37.8800489,"{'name': '한마음소아청소년과의원', 'number': ' 033-241-3667', 'address': ' 강원도 춘천시 후석로 326 후평동5층 ', 'lat': 127.7500925, 'lng': 37.8800489}"
97,한마음연합의원, 033-243-7550, 강원도 춘천시 보안길 65 후평동 503호,127.7503481,37.8801477,"{'name': '한마음연합의원', 'number': ' 033-243-7550', 'address': ' 강원도 춘천시 보안길 65 후평동 503호', 'lat': 127.7503481, 'lng': 37.8801477}"
98,한빛소아청소년과의원, 033-743-3388, 강원도 원주시 태장둔치길 41-1 태장동 ,127.9519942,37.3840035,"{'name': '한빛소아청소년과의원', 'number': ' 033-743-3388', 'address': ' 강원도 원주시 태장둔치길 41-1 태장동 ', 'lat': 127.9519942, 'lng': 37.3840035}"
99,한빛의원, 033-263-6190, 강원도 춘천시 세실로 108 석사동 롯데마트석사점2층,127.7591472,37.8667786,"{'name': '한빛의원', 'number': ' 033-263-6190', 'address': ' 강원도 춘천시 세실로 108 석사동 롯데마트석사점2층', 'lat': 127.7591472, 'lng': 37.8667786}"
100,한빛이비인후과의원, 033-761-5002, 강원도 원주시 시청로 36 무실동 ,127.9236214,37.3391898,"{'name': '한빛이비인후과의원', 'number': ' 033-761-5002', 'address': ' 강원도 원주시 시청로 36 무실동 ', 'lat': 127.9236214, 'lng': 37.3391898}"
101,한사랑의원, 033-462-2223, 강원도 인제군 인제읍 인제로193번길 1 1 ,128.1715713,38.0689796,"{'name': '한사랑의원', 'number': ' 033-462-2223', 'address': ' 강원도 인제군 인제읍 인제로193번길 1 1 ', 'lat': 128.1715713, 'lng': 38.0689796}"
102,한소아과의원, 033-531-6247, 강원도 동해시 천곡로 86-2 천곡동대륜빌딩2층 ,129.1150224,37.5228662,"{'name': '한소아과의원', 'number': ' 033-531-6247', 'address': ' 강원도 동해시 천곡로 86-2 천곡동대륜빌딩2층 ', 'lat': 129.1150224, 'lng': 37.5228662}"
103,햇살따뜻한의원, 033-242-2553, 강원도 춘천시 경춘로 2353 온의동 이마트5층,127.7186073,37.8637837,"{'name': '햇살따뜻한의원', 'number': ' 033-242-2553', 'address': ' 강원도 춘천시 경춘로 2353 온의동 이마트5층', 'lat': 127.7186073, 'lng': 37.8637837}"
104,행복한소아청소년과의원, 033-652-4650, 강원도 강릉시 성덕포남로182번길 46 포남동 ,128.9133402,37.7700173,"{'name': '행복한소아청소년과의원', 'number': ' 033-652-4650', 'address': ' 강원도 강릉시 성덕포남로182번길 46 포남동 ', 'lat': 128.9133402, 'lng': 37.7700173}"
105,현소아청소년과의원, 033-651-6235, 강원도 강릉시 성덕포남로 75 입암동 대성빌딩2층,128.9174296,37.7609503,"{'name': '현소아청소년과의원', 'number': ' 033-651-6235', 'address': ' 강원도 강릉시 성덕포남로 75 입암동 대성빌딩2층', 'lat': 128.9174296, 'lng': 37.7609503}"
106,호산부인과의원, 033-264-1700, 강원도 춘천시 퇴계로 189 석사동 ,127.7398119,37.8575123,"{'name': '호산부인과의원', 'number': ' 033-264-1700', 'address': ' 강원도 춘천시 퇴계로 189 석사동 ', 'lat': 127.7398119, 'lng': 37.8575123}"
107,홍천아산병원, 033-430-5104, 강원도 홍천군 홍천읍 산림공원1길 17 17 ,127.8948538,37.6908303,"{'name': '홍천아산병원', 'number': ' 033-430-5104', 'address': ' 강원도 홍천군 홍천읍 산림공원1길 17 17 ', 'lat': 127.8948538, 'lng': 37.6908303}"
108,화천내과의원, 033-442-8001, 강원도 화천군 화천읍 중앙로 19-1    ,127.7064708,38.1042722,"{'name': '화천내과의원', 'number': ' 033-442-8001', 'address': ' 강원도 화천군 화천읍 중앙로 19-1    ', 'lat': 127.7064708, 'lng': 38.1042722}"
109,화천연세의원, 033-441-3800, 강원도 화천군 화천읍 중앙로2길 41-8  소고빌딩 2층 화천연세의원  ,127.7042095,38.1030337,"{'name': '화천연세의원', 'number': ' 033-441-3800', 'address': ' 강원도 화천군 화천읍 중앙로2길 41-8  소고빌딩 2층 화천연세의원  ', 'lat': 127.7042095, 'lng': 38.1030337}"
110,인구보건복지협회경기도지회가족보건의원, 031-256-4644, 경기도 수원시 팔달구 고화로14번길 11 매산로3가 ,127.0082598,37.2711545,"{'name': '인구보건복지협회경기도지회가족보건의원', 'number': ' 031-256-4644', 'address': ' 경기도 수원시 팔달구 고화로14번길 11 매산로3가 ', 'lat': 127.0082598, 'lng': 37.2711545}"
111,영문의료재단 다보스병원, 031-8021-2114, 경기도 용인시 처인구 백옥대로1082번길 18 김량장동108218 ,127.2114455,37.2314491,"{'name': '영문의료재단 다보스병원', 'number': ' 031-8021-2114', 'address': ' 경기도 용인시 처인구 백옥대로1082번길 18 김량장동108218 ', 'lat': 127.2114455, 'lng': 37.2314491}"
112,21세기연세의원, 031-711-7770, 경기도 성남시 분당구 성남대로 345 정자동 정자역프라자7층701703호,127.1076967,37.3669446,"{'name': '21세기연세의원', 'number': ' 031-711-7770', 'address': ' 경기도 성남시 분당구 성남대로 345 정자동 정자역프라자7층701703호', 'lat': 127.1076967, 'lng': 37.3669446}"
113,21세기의원, 031-419-8181, 경기도 안산시 상록구 샘골로 142 본오동 동보프라자,126.8633574,37.2964088,"{'name': '21세기의원', 'number': ' 031-419-8181', 'address': ' 경기도 안산시 상록구 샘골로 142 본오동 동보프라자', 'lat': 126.8633574, 'lng': 37.2964088}"
114,365건강한부곡의원, 031-461-9088, 경기도 의왕시 부곡중앙남3길 2 삼동 ,126.9508887,37.3207697,"{'name': '365건강한부곡의원', 'number': ' 031-461-9088', 'address': ' 경기도 의왕시 부곡중앙남3길 2 삼동 ', 'lat': 126.9508887, 'lng': 37.3207697}"
115,365드림의원, 031-761-1365, 경기도 광주시 광주대로 35 경안동4 7층,127.26021,37.4097399,"{'name': '365드림의원', 'number': ' 031-761-1365', 'address': ' 경기도 광주시 광주대로 35 경안동4 7층', 'lat': 127.26021, 'lng': 37.4097399}"
116,365벗이비인후과의원, 032-322-7585, 경기도 부천시 길주로 183 중동 영라이프빌딩303,126.7629375,37.5053003,"{'name': '365벗이비인후과의원', 'number': ' 032-322-7585', 'address': ' 경기도 부천시 길주로 183 중동 영라이프빌딩303', 'lat': 126.7629375, 'lng': 37.5053003}"
117,365삼성i소아청소년과의원, 031-945-7545, 경기도 파주시 교하로 87 목동동 삼성프라자8층,126.7339335,37.7276519,"{'name': '365삼성i소아청소년과의원', 'number': ' 031-945-7545', 'address': ' 경기도 파주시 교하로 87 목동동 삼성프라자8층', 'lat': 126.7339335, 'lng': 37.7276519}"
118,365서울가정의학과의원, 031-319-6429, 경기도 시흥시 배곧1로 27-15 정왕동 한라비발디캠퍼스2층201202호,126.7127749,37.3652278,"{'name': '365서울가정의학과의원', 'number': ' 031-319-6429', 'address': ' 경기도 시흥시 배곧1로 27-15 정왕동 한라비발디캠퍼스2층201202호', 'lat': 126.7127749, 'lng': 37.3652278}"
119,365서울내과의원, 031-593-7516, 경기도 남양주시 늘을3로 65-12 호평동 금강프라자403호,127.2479166,37.6602741,"{'name': '365서울내과의원', 'number': ' 031-593-7516', 'address': ' 경기도 남양주시 늘을3로 65-12 호평동 금강프라자403호', 'lat': 127.2479166, 'lng': 37.6602741}"
120,365서울소아청소년과의원, 031-979-5056, 경기도 고양시 덕양구 화중로 66-0 화정동 롯데마트,0.0,0.0,"{'name': '365서울소아청소년과의원', 'number': ' 031-979-5056', 'address': ' 경기도 고양시 덕양구 화중로 66-0 화정동 롯데마트', 'lat': 0.0, 'lng': 0.0}"
121,365소아청소년과의원, 031-981-3650, 경기도 김포시 김포한강4로 113 장기동 신한프라자503,126.668348,37.6439288,"{'name': '365소아청소년과의원', 'number': ' 031-981-3650', 'address': ' 경기도 김포시 김포한강4로 113 장기동 신한프라자503', 'lat': 126.668348, 'lng': 37.6439288}"
122,365스마트의원, 031-268-7234, 경기도 수원시 장안구 만석로19번길 25-10 천천동 롯데마트,126.9823938,37.2961317,"{'name': '365스마트의원', 'number': ' 031-268-7234', 'address': ' 경기도 수원시 장안구 만석로19번길 25-10 천천동 롯데마트', 'lat': 126.9823938, 'lng': 37.2961317}"
123,365아이랑소아청소년과의원, 031-273-0203, 경기도 수원시 영통구 중부대로 604 영통동 수원영통리슈빌스카이오피스텔1층,127.0813626,37.2671829,"{'name': '365아이랑소아청소년과의원', 'number': ' 031-273-0203', 'address': ' 경기도 수원시 영통구 중부대로 604 영통동 수원영통리슈빌스카이오피스텔1층', 'lat': 127.0813626, 'lng': 37.2671829}"
124,365연합의원, 031-611-2119, 경기도 평택시 송탄로40번길 79-16 이충동 ,127.0573139,37.0520911,"{'name': '365연합의원', 'number': ' 031-611-2119', 'address': ' 경기도 평택시 송탄로40번길 79-16 이충동 ', 'lat': 127.0573139, 'lng': 37.0520911}"
125,365열린의원, 031-405-0365, 경기도 안산시 상록구 시낭북로4길 1 부곡동2층 ,126.8581666,37.3352878,"{'name': '365열린의원', 'number': ' 031-405-0365', 'address': ' 경기도 안산시 상록구 시낭북로4길 1 부곡동2층 ', 'lat': 126.8581666, 'lng': 37.3352878}"
126,365키즈소아청소년과의원, 031-423-5575, 경기도 의왕시 포일로 43 내손동 대림프라자402호,126.9774361,37.3900442,"{'name': '365키즈소아청소년과의원', 'number': ' 031-423-5575', 'address': ' 경기도 의왕시 포일로 43 내손동 대림프라자402호', 'lat': 126.9774361, 'lng': 37.3900442}"
127,365프렌즈내과의원, 031-731-6614, 경기도 성남시 수정구 위례동로 147 창곡동 위례건아타워5층505호,127.15011,37.4730816,"{'name': '365프렌즈내과의원', 'number': ' 031-731-6614', 'address': ' 경기도 성남시 수정구 위례동로 147 창곡동 위례건아타워5층505호', 'lat': 127.15011, 'lng': 37.4730816}"
128,365플러스의원, 032-345-3657, 경기도 부천시 경인로 532 괴안동3층 ,126.8142618,37.4849195,"{'name': '365플러스의원', 'number': ' 032-345-3657', 'address': ' 경기도 부천시 경인로 532 괴안동3층 ', 'lat': 126.8142618, 'lng': 37.4849195}"
129,365힐링의원, 031-203-3650, 경기도 수원시 영통구 영통로 151 망포동2층 ,127.0552642,37.2409762,"{'name': '365힐링의원', 'number': ' 031-203-3650', 'address': ' 경기도 수원시 영통구 영통로 151 망포동2층 ', 'lat': 127.0552642, 'lng': 37.2409762}"
130,Dr.배가정의학과의원, 070-8824-4846, 경기도 이천시 부발읍 경충대로 2096-4 209호 ,127.490306,37.2521023,"{'name': 'Dr.배가정의학과의원', 'number': ' 070-8824-4846', 'address': ' 경기도 이천시 부발읍 경충대로 2096-4 209호 ', 'lat': 127.490306, 'lng': 37.2521023}"
131,Dr리더스내과의원, 031-957-7517, 경기도 파주시 미래로 369-13 동패동 한울프라자503호,126.7453112,37.7110603,"{'name': 'Dr리더스내과의원', 'number': ' 031-957-7517', 'address': ' 경기도 파주시 미래로 369-13 동패동 한울프라자503호', 'lat': 126.7453112, 'lng': 37.7110603}"
132,SK메디모아소아청소년과의원, 031-302-9933, 경기도 수원시 장안구 이목로 24-9 정자동 ,126.9848709,37.3093339,"{'name': 'SK메디모아소아청소년과의원', 'number': ' 031-302-9933', 'address': ' 경기도 수원시 장안구 이목로 24-9 정자동 ', 'lat': 126.9848709, 'lng': 37.3093339}"
133,e-서울이비인후과의원, 031-387-5075, 경기도 안양시 동안구 관평로 312 관양동3층 ,126.9574422,37.403905,"{'name': 'e-서울이비인후과의원', 'number': ' 031-387-5075', 'address': ' 경기도 안양시 동안구 관평로 312 관양동3층 ', 'lat': 126.9574422, 'lng': 37.403905}"
134,가온삼성가정의학과의원, 031-945-0050, 경기도 파주시 와석순환로 431 와동동 신운정프라자302호,126.7532566,37.7236611,"{'name': '가온삼성가정의학과의원', 'number': ' 031-945-0050', 'address': ' 경기도 파주시 와석순환로 431 와동동 신운정프라자302호', 'lat': 126.7532566, 'lng': 37.7236611}"
135,가정이편한가정의학과의원, 031-284-0775, 경기도 용인시 기흥구 덕영대로2077번길 16 영덕동 기흥대정프라자302호,127.0966571,37.2681902,"{'name': '가정이편한가정의학과의원', 'number': ' 031-284-0775', 'address': ' 경기도 용인시 기흥구 덕영대로2077번길 16 영덕동 기흥대정프라자302호', 'lat': 127.0966571, 'lng': 37.2681902}"
136,가족사랑의원, 02-2611-3100, 경기도 광명시 도덕로 52 광명동 청송빌딩3층,126.8535022,37.468823,"{'name': '가족사랑의원', 'number': ' 02-2611-3100', 'address': ' 경기도 광명시 도덕로 52 광명동 청송빌딩3층', 'lat': 126.8535022, 'lng': 37.468823}"
137,가좌우리소아과의원, 031-922-9077, 경기도 고양시 일산서구 가좌1로 8 가좌동 가좌마을상가동204호,126.7219959,37.6908527,"{'name': '가좌우리소아과의원', 'number': ' 031-922-9077', 'address': ' 경기도 고양시 일산서구 가좌1로 8 가좌동 가좌마을상가동204호', 'lat': 126.7219959, 'lng': 37.6908527}"
138,가좌우리의원, 031-921-3215, 경기도 고양시 일산서구 가좌3로 29 가좌동1층 ,126.7191258,37.6873987,"{'name': '가좌우리의원', 'number': ' 031-921-3215', 'address': ' 경기도 고양시 일산서구 가좌3로 29 가좌동1층 ', 'lat': 126.7191258, 'lng': 37.6873987}"
139,가톨릭대학교부천성모병원, 032-1577-0675, 경기도 부천시 소사로 327 소사동 ,126.7924167,37.4871165,"{'name': '가톨릭대학교부천성모병원', 'number': ' 032-1577-0675', 'address': ' 경기도 부천시 소사로 327 소사동 ', 'lat': 126.7924167, 'lng': 37.4871165}"
140,가톨릭대학교성빈센트병원, 031-249-7114, 경기도 수원시 팔달구 중부대로 93 지동 ,127.0274271,37.2779855,"{'name': '가톨릭대학교성빈센트병원', 'number': ' 031-249-7114', 'address': ' 경기도 수원시 팔달구 중부대로 93 지동 ', 'lat': 127.0274271, 'lng': 37.2779855}"
141,가톨릭대학교의정부성모병원, 031-1661-7500, 경기도 의정부시 천보로 271 금오동 ,127.0777625,37.7587045,"{'name': '가톨릭대학교의정부성모병원', 'number': ' 031-1661-7500', 'address': ' 경기도 의정부시 천보로 271 금오동 ', 'lat': 127.0777625, 'lng': 37.7587045}"
142,가평삼성의원, 031-585-3658, 경기도 가평군 가평읍 석봉로 198    ,127.5100942,37.8326551,"{'name': '가평삼성의원', 'number': ' 031-585-3658', 'address': ' 경기도 가평군 가평읍 석봉로 198    ', 'lat': 127.5100942, 'lng': 37.8326551}"
143,갈매아이웰소아청소년과의원, 031-572-3651, 경기도 구리시 갈매순환로 194 갈매동 신영프라자3층302,127.1217994,37.6366134,"{'name': '갈매아이웰소아청소년과의원', 'number': ' 031-572-3651', 'address': ' 경기도 구리시 갈매순환로 194 갈매동 신영프라자3층302', 'lat': 127.1217994, 'lng': 37.6366134}"
144,강남병원, 031-300-0782, 경기도 용인시 기흥구 중부대로 411 신갈동 ,127.1115072,37.2737515,"{'name': '강남병원', 'number': ' 031-300-0782', 'address': ' 경기도 용인시 기흥구 중부대로 411 신갈동 ', 'lat': 127.1115072, 'lng': 37.2737515}"
145,강남성모이비인후과의원, 031-376-5005, 경기도 오산시 수청로 193 금암동 pp세교프라자303호,127.0455136,37.1766113,"{'name': '강남성모이비인후과의원', 'number': ' 031-376-5005', 'address': ' 경기도 오산시 수청로 193 금암동 pp세교프라자303호', 'lat': 127.0455136, 'lng': 37.1766113}"
146,강남소아청소년과의원, 031-681-6555, 경기도 평택시 안중읍 안현로서6길 68 3층 ,126.9216123,36.9847815,"{'name': '강남소아청소년과의원', 'number': ' 031-681-6555', 'address': ' 경기도 평택시 안중읍 안현로서6길 68 3층 ', 'lat': 126.9216123, 'lng': 36.9847815}"
147,강남여성병원, 031-222-7575, 경기도 수원시 팔달구 중부대로 96 인계동 ,127.0274792,37.2767499,"{'name': '강남여성병원', 'number': ' 031-222-7575', 'address': ' 경기도 수원시 팔달구 중부대로 96 인계동 ', 'lat': 127.0274792, 'lng': 37.2767499}"
148,강남의원, 031-352-9480, 경기도 화성시 정남면 만년로 540  1049-9  ,0.0,0.0,"{'name': '강남의원', 'number': ' 031-352-9480', 'address': ' 경기도 화성시 정남면 만년로 540  1049-9  ', 'lat': 0.0, 'lng': 0.0}"
149,강남임내과의원, 031-275-7577, 경기도 용인시 기흥구 강남동로 10 구갈동 강남피아205호,127.1282208,37.2712263,"{'name': '강남임내과의원', 'number': ' 031-275-7577', 'address': ' 경기도 용인시 기흥구 강남동로 10 구갈동 강남피아205호', 'lat': 127.1282208, 'lng': 37.2712263}"
150,강내과의원, 031-445-7585, 경기도 안양시 동안구 관악대로 72 비산동 동화빌딩3층,126.9323158,37.3976368,"{'name': '강내과의원', 'number': ' 031-445-7585', 'address': ' 경기도 안양시 동안구 관악대로 72 비산동 동화빌딩3층', 'lat': 126.9323158, 'lng': 37.3976368}"
151,강소아청소년과의원, 02-896-5275, 경기도 광명시 범안로 1047 하안동 우덕빌딩3층303304호,126.8790367,37.4625249,"{'name': '강소아청소년과의원', 'number': ' 02-896-5275', 'address': ' 경기도 광명시 범안로 1047 하안동 우덕빌딩3층303304호', 'lat': 126.8790367, 'lng': 37.4625249}"
152,강소아청소년과의원, 031-498-7577, 경기도 시흥시 배곧4로 32-9 정왕동골든프라자2층206호 ,126.7272129,37.3768086,"{'name': '강소아청소년과의원', 'number': ' 031-498-7577', 'address': ' 경기도 시흥시 배곧4로 32-9 정왕동골든프라자2층206호 ', 'lat': 126.7272129, 'lng': 37.3768086}"
153,강영찬가정의학과의원, 031-254-2722, 경기도 수원시 장안구 창룡대로 185 연무동 ,127.0303508,37.2925386,"{'name': '강영찬가정의학과의원', 'number': ' 031-254-2722', 'address': ' 경기도 수원시 장안구 창룡대로 185 연무동 ', 'lat': 127.0303508, 'lng': 37.2925386}"
154,강의원, 031-511-7512, 경기도 남양주시 화도읍 묵현로 15  290-1  ,0.0,0.0,"{'name': '강의원', 'number': ' 031-511-7512', 'address': ' 경기도 남양주시 화도읍 묵현로 15  290-1  ', 'lat': 0.0, 'lng': 0.0}"
155,강의원, 031-919-2568, 경기도 고양시 일산동구 중앙로1275번길 38-10 장항동 우림로데오스위트209호,126.7709745,37.659669,"{'name': '강의원', 'number': ' 031-919-2568', 'address': ' 경기도 고양시 일산동구 중앙로1275번길 38-10 장항동 우림로데오스위트209호', 'lat': 126.7709745, 'lng': 37.659669}"
156,강정협내과의원, 031-377-8081, 경기도 오산시 성호대로 89 오산동 세명프라자204호,127.071389,37.1491527,"{'name': '강정협내과의원', 'number': ' 031-377-8081', 'address': ' 경기도 오산시 성호대로 89 오산동 세명프라자204호', 'lat': 127.071389, 'lng': 37.1491527}"
157,강천식소아과의원, 031-444-5565, 경기도 안양시 동안구 임곡로 62 비산동 임곡주공프라자303호,126.9337519,37.4048409,"{'name': '강천식소아과의원', 'number': ' 031-444-5565', 'address': ' 경기도 안양시 동안구 임곡로 62 비산동 임곡주공프라자303호', 'lat': 126.9337519, 'lng': 37.4048409}"
158,강현철의원, 031-584-1165, 경기도 가평군 청평면 청평중앙로 51  465-8  ,0.0,0.0,"{'name': '강현철의원', 'number': ' 031-584-1165', 'address': ' 경기도 가평군 청평면 청평중앙로 51  465-8  ', 'lat': 0.0, 'lng': 0.0}"
159,건강드림내과의원, 031-666-8275, 경기도 평택시 탄현로336번길 10 지산동 ,127.0568373,37.081679,"{'name': '건강드림내과의원', 'number': ' 031-666-8275', 'address': ' 경기도 평택시 탄현로336번길 10 지산동 ', 'lat': 127.0568373, 'lng': 37.081679}"
160,건강한가족의원, 031-377-5355, 경기도 오산시 성호대로 121 오산동 월드타워302호,127.0748231,37.1490559,"{'name': '건강한가족의원', 'number': ' 031-377-5355', 'address': ' 경기도 오산시 성호대로 121 오산동 월드타워302호', 'lat': 127.0748231, 'lng': 37.1490559}"
161,건강한문내과의원, 032-326-7582, 경기도 부천시 길주로 191 중동 금영프라자301호,126.763865,37.5051461,"{'name': '건강한문내과의원', 'number': ' 032-326-7582', 'address': ' 경기도 부천시 길주로 191 중동 금영프라자301호', 'lat': 126.763865, 'lng': 37.5051461}"
162,경기도의료원 수원병원, 031-888-0582, 경기도 수원시 장안구 수성로245번길 69 정자동 ,126.9963375,37.2918917,"{'name': '경기도의료원 수원병원', 'number': ' 031-888-0582', 'address': ' 경기도 수원시 장안구 수성로245번길 69 정자동 ', 'lat': 126.9963375, 'lng': 37.2918917}"
163,경기도의료원 안성병원, 031-8046-5131, 경기도 안성시 남파로 95 당왕동 ,127.2603668,37.0173531,"{'name': '경기도의료원 안성병원', 'number': ' 031-8046-5131', 'address': ' 경기도 안성시 남파로 95 당왕동 ', 'lat': 127.2603668, 'lng': 37.0173531}"
164,경기도의료원의정부병원, 031-828-5000, 경기도 의정부시 흥선로 142 의정부동 ,127.0425004,37.741161,"{'name': '경기도의료원의정부병원', 'number': ' 031-828-5000', 'address': ' 경기도 의정부시 흥선로 142 의정부동 ', 'lat': 127.0425004, 'lng': 37.741161}"
165,경기도의료원이천병원, 031-639-4998, 경기도 이천시 경충대로 2742 관고동 ,127.4325729,37.2827618,"{'name': '경기도의료원이천병원', 'number': ' 031-639-4998', 'address': ' 경기도 이천시 경충대로 2742 관고동 ', 'lat': 127.4325729, 'lng': 37.2827618}"
166,경기도의료원파주병원, 031-940-9100, 경기도 파주시 중앙로 207 금촌동 ,126.7801503,37.7550649,"{'name': '경기도의료원파주병원', 'number': ' 031-940-9100', 'address': ' 경기도 파주시 중앙로 207 금촌동 ', 'lat': 126.7801503, 'lng': 37.7550649}"
167,경기도의료원포천병원, 031-539-9114, 경기도 포천시 포천로 1648 신읍동 ,127.19828,37.9033163,"{'name': '경기도의료원포천병원', 'number': ' 031-539-9114', 'address': ' 경기도 포천시 포천로 1648 신읍동 ', 'lat': 127.19828, 'lng': 37.9033163}"
168,경혜신소아과의원, 031-485-1063, 경기도 안산시 단원구 예술대학로 83 고잔동202호 ,126.837101,37.3244171,"{'name': '경혜신소아과의원', 'number': ' 031-485-1063', 'address': ' 경기도 안산시 단원구 예술대학로 83 고잔동202호 ', 'lat': 126.837101, 'lng': 37.3244171}"
169,고대이비인후과의원, 070-4197-4321, 경기도 화성시 10용사로 286 능동 우남퍼스트빌상가101호,127.0493997,37.1985436,"{'name': '고대이비인후과의원', 'number': ' 070-4197-4321', 'address': ' 경기도 화성시 10용사로 286 능동 우남퍼스트빌상가101호', 'lat': 127.0493997, 'lng': 37.1985436}"
170,고려가정의원, 031-264-1504, 경기도 용인시 수지구 만현로 20 상현동 성산빌딩4층401호,127.0885178,37.314139,"{'name': '고려가정의원', 'number': ' 031-264-1504', 'address': ' 경기도 용인시 수지구 만현로 20 상현동 성산빌딩4층401호', 'lat': 127.0885178, 'lng': 37.314139}"
171,고려가정의학과의원, 031-459-8575, 경기도 군포시 군포로 567 당동 대창빌딩2층,126.9467845,37.3566437,"{'name': '고려가정의학과의원', 'number': ' 031-459-8575', 'address': ' 경기도 군포시 군포로 567 당동 대창빌딩2층', 'lat': 126.9467845, 'lng': 37.3566437}"
172,고려대학교의과대학부속안산병원, 031-412-5760, 경기도 안산시 단원구 적금로 123 고잔동 ,126.8249033,37.3185144,"{'name': '고려대학교의과대학부속안산병원', 'number': ' 031-412-5760', 'address': ' 경기도 안산시 단원구 적금로 123 고잔동 ', 'lat': 126.8249033, 'lng': 37.3185144}"
173,고려웰가정의학과의원, 031-217-8871, 경기도 수원시 영통구 대학로 109 이의동 골드클래스5302호,127.0470913,37.3051256,"{'name': '고려웰가정의학과의원', 'number': ' 031-217-8871', 'address': ' 경기도 수원시 영통구 대학로 109 이의동 골드클래스5302호', 'lat': 127.0470913, 'lng': 37.3051256}"
174,고려웰니스의원, 031-684-1800, 경기도 평택시 안중읍 안현로서8길 23 동흥빌딩3층 ,126.9227679,36.9790704,"{'name': '고려웰니스의원', 'number': ' 031-684-1800', 'address': ' 경기도 평택시 안중읍 안현로서8길 23 동흥빌딩3층 ', 'lat': 126.9227679, 'lng': 36.9790704}"
175,고려은여울의원, 031-992-2588, 경기도 김포시 김포한강8로 165 마산동한강하모니프라자3층302호 ,126.6435702,37.6372158,"{'name': '고려은여울의원', 'number': ' 031-992-2588', 'address': ' 경기도 김포시 김포한강8로 165 마산동한강하모니프라자3층302호 ', 'lat': 126.6435702, 'lng': 37.6372158}"
176,고려이비인후과의원, 031-559-5075, 경기도 남양주시 화도읍 경춘로 1992 롯데마트202호 ,127.3094425,37.6502259,"{'name': '고려이비인후과의원', 'number': ' 031-559-5075', 'address': ' 경기도 남양주시 화도읍 경춘로 1992 롯데마트202호 ', 'lat': 127.3094425, 'lng': 37.6502259}"
177,고려정성가정의학과의원, 031-797-9540, 경기도 광주시 초월읍 경충대로 926 926 ,127.3115105,37.3651374,"{'name': '고려정성가정의학과의원', 'number': ' 031-797-9540', 'address': ' 경기도 광주시 초월읍 경충대로 926 926 ', 'lat': 127.3115105, 'lng': 37.3651374}"
178,고려정성의원, 031-226-8575, 경기도 수원시 팔달구 세지로 148 인계동 2층,127.0209471,37.2646462,"{'name': '고려정성의원', 'number': ' 031-226-8575', 'address': ' 경기도 수원시 팔달구 세지로 148 인계동 2층', 'lat': 127.0209471, 'lng': 37.2646462}"
179,고수련의원, 031-457-7585, 경기도 안양시 동안구 포도원로 26 호계동 대림프라자3층,126.964741,37.362052,"{'name': '고수련의원', 'number': ' 031-457-7585', 'address': ' 경기도 안양시 동안구 포도원로 26 호계동 대림프라자3층', 'lat': 126.964741, 'lng': 37.362052}"
180,고양연세소아과의원, 031-964-7534, 경기도 고양시 덕양구 혜음로 29-1 고양동 ,126.9017163,37.7031817,"{'name': '고양연세소아과의원', 'number': ' 031-964-7534', 'address': ' 경기도 고양시 덕양구 혜음로 29-1 고양동 ', 'lat': 126.9017163, 'lng': 37.7031817}"
181,고양연세의원, 031-964-5078, 경기도 고양시 덕양구 푸른마을로 6 고양동 고양ePLAZA304호,126.902958,37.7088525,"{'name': '고양연세의원', 'number': ' 031-964-5078', 'address': ' 경기도 고양시 덕양구 푸른마을로 6 고양동 고양ePLAZA304호', 'lat': 126.902958, 'lng': 37.7088525}"
182,고운누리소아청소년과의원, 031-796-3983, 경기도 하남시 덕풍동로 111-15 덕풍동 리치플러스509호,127.2079555,37.5514188,"{'name': '고운누리소아청소년과의원', 'number': ' 031-796-3983', 'address': ' 경기도 하남시 덕풍동로 111-15 덕풍동 리치플러스509호', 'lat': 127.2079555, 'lng': 37.5514188}"
183,고은맘소아청소년과의원, 031-227-5275, 경기도 수원시 팔달구 일월로22번길 15 화서동 ,126.9805753,37.2858662,"{'name': '고은맘소아청소년과의원', 'number': ' 031-227-5275', 'address': ' 경기도 수원시 팔달구 일월로22번길 15 화서동 ', 'lat': 126.9805753, 'lng': 37.2858662}"
184,고은맘소아청소년과의원, 031-657-2821, 경기도 평택시 서재로 2 동삭동 한주빌딩302호,127.0988015,37.0098798,"{'name': '고은맘소아청소년과의원', 'number': ' 031-657-2821', 'address': ' 경기도 평택시 서재로 2 동삭동 한주빌딩302호', 'lat': 127.0988015, 'lng': 37.0098798}"
185,고잔연세소아청소년과의원, 031-503-1119, 경기도 안산시 단원구 광덕대로 174 고잔동 월드타운B동503,126.8310387,37.311929,"{'name': '고잔연세소아청소년과의원', 'number': ' 031-503-1119', 'address': ' 경기도 안산시 단원구 광덕대로 174 고잔동 월드타운B동503', 'lat': 126.8310387, 'lng': 37.311929}"
186,고잔우리들소아과의원, 031-411-5005, 경기도 안산시 단원구 초지로 100 초지동 세종프라자305호,126.8152121,37.3077484,"{'name': '고잔우리들소아과의원', 'number': ' 031-411-5005', 'address': ' 경기도 안산시 단원구 초지로 100 초지동 세종프라자305호', 'lat': 126.8152121, 'lng': 37.3077484}"
187,고잔제일소아과의원, 031-401-5990, 경기도 안산시 단원구 원포공원1로 49 초지동 태영타운201,126.8123399,37.302442,"{'name': '고잔제일소아과의원', 'number': ' 031-401-5990', 'address': ' 경기도 안산시 단원구 원포공원1로 49 초지동 태영타운201', 'lat': 126.8123399, 'lng': 37.302442}"
188,고형기소아청소년과의원, 031-706-1350, 경기도 성남시 분당구 장미로 139 야탑동 매화마을공무원아파트상가201호,127.1357911,37.414552,"{'name': '고형기소아청소년과의원', 'number': ' 031-706-1350', 'address': ' 경기도 성남시 분당구 장미로 139 야탑동 매화마을공무원아파트상가201호', 'lat': 127.1357911, 'lng': 37.414552}"
189,곡선연세가정의원, 031-233-2240, 경기도 수원시 권선구 권광로27번길 62 권선동 삼천리아파트상가2층,127.0239267,37.2524184,"{'name': '곡선연세가정의원', 'number': ' 031-233-2240', 'address': ' 경기도 수원시 권선구 권광로27번길 62 권선동 삼천리아파트상가2층', 'lat': 127.0239267, 'lng': 37.2524184}"
190,공선희소아청소년과의원, 032-346-2100, 경기도 부천시 부일로 753 역곡동 로하스타워302호,126.8132788,37.4866801,"{'name': '공선희소아청소년과의원', 'number': ' 032-346-2100', 'address': ' 경기도 부천시 부일로 753 역곡동 로하스타워302호', 'lat': 126.8132788, 'lng': 37.4866801}"
191,과천예일의원, 02-507-7582, 경기도 과천시 별양상가1로 30 별양동 골든타워404호405호,126.9933232,37.42829,"{'name': '과천예일의원', 'number': ' 02-507-7582', 'address': ' 경기도 과천시 별양상가1로 30 별양동 골든타워404호405호', 'lat': 126.9933232, 'lng': 37.42829}"
192,곽내과의원, 031-529-7582, 경기도 남양주시 오남읍 진건오남로 629-1 진주상가217호 ,127.2117427,37.6892858,"{'name': '곽내과의원', 'number': ' 031-529-7582', 'address': ' 경기도 남양주시 오남읍 진건오남로 629-1 진주상가217호 ', 'lat': 127.2117427, 'lng': 37.6892858}"
193,곽여성병원, 031-752-1119, 경기도 성남시 수정구 수정로 91 태평동 ,127.1304573,37.4407911,"{'name': '곽여성병원', 'number': ' 031-752-1119', 'address': ' 경기도 성남시 수정구 수정로 91 태평동 ', 'lat': 127.1304573, 'lng': 37.4407911}"
194,곽이비인후과의원, 02-2619-1181, 경기도 광명시 광명로 829 광명동 백제빌딩2층,126.8512891,37.4734372,"{'name': '곽이비인후과의원', 'number': ' 02-2619-1181', 'address': ' 경기도 광명시 광명로 829 광명동 백제빌딩2층', 'lat': 126.8512891, 'lng': 37.4734372}"
195,관악가정의학과의원, 031-472-1175, 경기도 안양시 만안구 경수대로 1259 석수동3층 ,126.9093453,37.4197714,"{'name': '관악가정의학과의원', 'number': ' 031-472-1175', 'address': ' 경기도 안양시 만안구 경수대로 1259 석수동3층 ', 'lat': 126.9093453, 'lng': 37.4197714}"
196,관악연세의원, 031-474-8275, 경기도 안양시 만안구 안양로 496 석수동 석수2동주민센터1층,126.9093552,37.413883,"{'name': '관악연세의원', 'number': ' 031-474-8275', 'address': ' 경기도 안양시 만안구 안양로 496 석수동 석수2동주민센터1층', 'lat': 126.9093552, 'lng': 37.413883}"
197,광교미소모아내과의원, 031-212-1475, 경기도 용인시 수지구 광교중앙로 301 상현동 드림타워403호,127.0686407,37.2970124,"{'name': '광교미소모아내과의원', 'number': ' 031-212-1475', 'address': ' 경기도 용인시 수지구 광교중앙로 301 상현동 드림타워403호', 'lat': 127.0686407, 'lng': 37.2970124}"
198,광교연세소아청소년과의원, 031-217-2323, 경기도 용인시 수지구 광교마을로 54 상현동 에스비타운301,127.0705933,37.2981497,"{'name': '광교연세소아청소년과의원', 'number': ' 031-217-2323', 'address': ' 경기도 용인시 수지구 광교마을로 54 상현동 에스비타운301', 'lat': 127.0705933, 'lng': 37.2981497}"
199,광교이안소아청소년과의원, 031-213-7373, 경기도 수원시 영통구 센트럴타운로 106 308 309호이의동 센트럴프라자,0.0,0.0,"{'name': '광교이안소아청소년과의원', 'number': ' 031-213-7373', 'address': ' 경기도 수원시 영통구 센트럴타운로 106 308 309호이의동 센트럴프라자', 'lat': 0.0, 'lng': 0.0}"
200,광교푸른내과의원, 031-216-8366, 경기도 수원시 영통구 도청로17번길 10 이의동 성희프라자2층201203호,127.0539795,37.2860882,"{'name': '광교푸른내과의원', 'number': ' 031-216-8366', 'address': ' 경기도 수원시 영통구 도청로17번길 10 이의동 성희프라자2층201203호', 'lat': 127.0539795, 'lng': 37.2860882}"
201,광명성애병원, 02-2680-7114, 경기도 광명시 디지털로 36 철산동철산동 광명성애병원,126.8713323,37.4736622,"{'name': '광명성애병원', 'number': ' 02-2680-7114', 'address': ' 경기도 광명시 디지털로 36 철산동철산동 광명성애병원', 'lat': 126.8713323, 'lng': 37.4736622}"
202,광주시민의원, 031-767-7514, 경기도 광주시 오포읍 오포로 544 12층 ,127.2119083,37.3468111,"{'name': '광주시민의원', 'number': ' 031-767-7514', 'address': ' 경기도 광주시 오포읍 오포로 544 12층 ', 'lat': 127.2119083, 'lng': 37.3468111}"
203,광탄현대병원, 031-935-5678, 경기도 파주시 광탄면 큰여울길 20-16    ,126.8496889,37.7792667,"{'name': '광탄현대병원', 'number': ' 031-935-5678', 'address': ' 경기도 파주시 광탄면 큰여울길 20-16    ', 'lat': 126.8496889, 'lng': 37.7792667}"
204,구구소아청소년과의원, 031-847-5844, 경기도 양주시 회천남로 88 옥정동 M타워304호,127.0928032,37.818538,"{'name': '구구소아청소년과의원', 'number': ' 031-847-5844', 'address': ' 경기도 양주시 회천남로 88 옥정동 M타워304호', 'lat': 127.0928032, 'lng': 37.818538}"
205,구리정형외과의원, 031-553-9119, 경기도 구리시 이문안로 68 수택동 동진프라자2층,127.1387038,37.592144,"{'name': '구리정형외과의원', 'number': ' 031-553-9119', 'address': ' 경기도 구리시 이문안로 68 수택동 동진프라자2층', 'lat': 127.1387038, 'lng': 37.592144}"
206,구소아청소년과의원, 031-741-9978, 경기도 성남시 중원구 광명로347번길 2 금광동3층 ,127.1645347,37.4463228,"{'name': '구소아청소년과의원', 'number': ' 031-741-9978', 'address': ' 경기도 성남시 중원구 광명로347번길 2 금광동3층 ', 'lat': 127.1645347, 'lng': 37.4463228}"
207,구앤배소아청소년과의원, 031-232-2338, 경기도 화성시 병점2로 30 병점동 명신프라자2층207호,127.0403077,37.2061205,"{'name': '구앤배소아청소년과의원', 'number': ' 031-232-2338', 'address': ' 경기도 화성시 병점2로 30 병점동 명신프라자2층207호', 'lat': 127.0403077, 'lng': 37.2061205}"
208,구인재활의학과의원, 031-882-7636, 경기도 여주시 대신면 여양로 1421  율촌리 269-7  ,127.5901186,37.3753662,"{'name': '구인재활의학과의원', 'number': ' 031-882-7636', 'address': ' 경기도 여주시 대신면 여양로 1421  율촌리 269-7  ', 'lat': 127.5901186, 'lng': 37.3753662}"
209,국립암센터, 031-920-1240, 경기도 고양시 일산동구 일산로 323 마두동 ,126.783446,37.6632435,"{'name': '국립암센터', 'number': ' 031-920-1240', 'address': ' 경기도 고양시 일산동구 일산로 323 마두동 ', 'lat': 126.783446, 'lng': 37.6632435}"
210,국민건강보험공단일산병원, 031-900-0114, 경기도 고양시 일산동구 일산로 100 백석동 백석1동1241외1필지4층,126.7929571,37.6455537,"{'name': '국민건강보험공단일산병원', 'number': ' 031-900-0114', 'address': ' 경기도 고양시 일산동구 일산로 100 백석동 백석1동1241외1필지4층', 'lat': 126.7929571, 'lng': 37.6455537}"
211,군문메디컬의원, 031-691-2119, 경기도 평택시 원평로25번길 61-1 군문동 주공플라자3층,127.0830114,36.9861927,"{'name': '군문메디컬의원', 'number': ' 031-691-2119', 'address': ' 경기도 평택시 원평로25번길 61-1 군문동 주공플라자3층', 'lat': 127.0830114, 'lng': 36.9861927}"
212,굿닥터소아과의원, 031-214-6235, 경기도 수원시 팔달구 권광로276번길 4 인계동 ,127.0360737,37.2716626,"{'name': '굿닥터소아과의원', 'number': ' 031-214-6235', 'address': ' 경기도 수원시 팔달구 권광로276번길 4 인계동 ', 'lat': 127.0360737, 'lng': 37.2716626}"
213,굿라이프연세의원, 031-294-2100, 경기도 수원시 권선구 일월천로16번길 39 구운동 LD코오롱상가104호,126.9755328,37.2850031,"{'name': '굿라이프연세의원', 'number': ' 031-294-2100', 'address': ' 경기도 수원시 권선구 일월천로16번길 39 구운동 LD코오롱상가104호', 'lat': 126.9755328, 'lng': 37.2850031}"
214,굿모닝가정의원, 031-733-7585, 경기도 성남시 수정구 수정남로 297 산성동2층 ,127.1510709,37.4551626,"{'name': '굿모닝가정의원', 'number': ' 031-733-7585', 'address': ' 경기도 성남시 수정구 수정남로 297 산성동2층 ', 'lat': 127.1510709, 'lng': 37.4551626}"
215,굿모닝소아청소년과의원, 031-231-1477, 경기도 화성시 경기대로 985 병점동 홈플러스1층,127.0367574,37.2037241,"{'name': '굿모닝소아청소년과의원', 'number': ' 031-231-1477', 'address': ' 경기도 화성시 경기대로 985 병점동 홈플러스1층', 'lat': 127.0367574, 'lng': 37.2037241}"
216,굿모닝소아청소년과의원, 031-791-9938, 경기도 하남시 덕풍서로 70 덕풍동 이마트3층,127.2053473,37.5527606,"{'name': '굿모닝소아청소년과의원', 'number': ' 031-791-9938', 'address': ' 경기도 하남시 덕풍서로 70 덕풍동 이마트3층', 'lat': 127.2053473, 'lng': 37.5527606}"
217,굿모닝소아청소년과의원, 031-973-6002, 경기도 고양시 덕양구 충장로 134 행신동 아이프라자208,126.8349757,37.6244025,"{'name': '굿모닝소아청소년과의원', 'number': ' 031-973-6002', 'address': ' 경기도 고양시 덕양구 충장로 134 행신동 아이프라자208', 'lat': 126.8349757, 'lng': 37.6244025}"
218,굿모닝이비인후과의원, 031-410-2209, 경기도 안산시 단원구 선부광장1로 70 선부동2층 ,126.8119347,37.3359531,"{'name': '굿모닝이비인후과의원', 'number': ' 031-410-2209', 'address': ' 경기도 안산시 단원구 선부광장1로 70 선부동2층 ', 'lat': 126.8119347, 'lng': 37.3359531}"
219,굿모닝이비인후과의원, 031-575-9696, 경기도 남양주시 퇴계원면 퇴계원로 46 신한빌딩4층 ,127.1419999,37.650754,"{'name': '굿모닝이비인후과의원', 'number': ' 031-575-9696', 'address': ' 경기도 남양주시 퇴계원면 퇴계원로 46 신한빌딩4층 ', 'lat': 127.1419999, 'lng': 37.650754}"
220,굿모닝이비인후과의원, 031-847-7822, 경기도 의정부시 추동로 9 신곡동 휴먼시티303호,127.0569125,37.7429846,"{'name': '굿모닝이비인후과의원', 'number': ' 031-847-7822', 'address': ' 경기도 의정부시 추동로 9 신곡동 휴먼시티303호', 'lat': 127.0569125, 'lng': 37.7429846}"
221,굿모닝이비인후과의원, 031-957-7585, 경기도 파주시 청석로 256 동패동 교하일번가403호,126.7176866,37.724621,"{'name': '굿모닝이비인후과의원', 'number': ' 031-957-7585', 'address': ' 경기도 파주시 청석로 256 동패동 교하일번가403호', 'lat': 126.7176866, 'lng': 37.724621}"
222,굿모닝힐의원, 031-948-1975, 경기도 파주시 한울로 67 동패동 아름터프라자301호,126.739151,37.7108345,"{'name': '굿모닝힐의원', 'number': ' 031-948-1975', 'address': ' 경기도 파주시 한울로 67 동패동 아름터프라자301호', 'lat': 126.739151, 'lng': 37.7108345}"
223,굿키즈소아청소년과의원, 031-322-5597, 경기도 화성시 효행로 1051 진안동 메인프라자409호,127.0419621,37.214623,"{'name': '굿키즈소아청소년과의원', 'number': ' 031-322-5597', 'address': ' 경기도 화성시 효행로 1051 진안동 메인프라자409호', 'lat': 127.0419621, 'lng': 37.214623}"
224,권선연세내과의원, 031-222-6224, 경기도 수원시 권선구 권광로 68 권선동 교연빌딩4층,127.0290642,37.2539941,"{'name': '권선연세내과의원', 'number': ' 031-222-6224', 'address': ' 경기도 수원시 권선구 권광로 68 권선동 교연빌딩4층', 'lat': 127.0290642, 'lng': 37.2539941}"
225,권소아청소년과의원, 031-204-3131, 경기도 수원시 영통구 덕영대로1555번길 46 영통동 롯데크리닉상가203호,127.0616016,37.2482544,"{'name': '권소아청소년과의원', 'number': ' 031-204-3131', 'address': ' 경기도 수원시 영통구 덕영대로1555번길 46 영통동 롯데크리닉상가203호', 'lat': 127.0616016, 'lng': 37.2482544}"
226,권소아청소년과의원, 031-677-0134, 경기도 안성시 중앙로 368 석정동모아빌딩1층103호 ,127.2676149,37.0077316,"{'name': '권소아청소년과의원', 'number': ' 031-677-0134', 'address': ' 경기도 안성시 중앙로 368 석정동모아빌딩1층103호 ', 'lat': 127.2676149, 'lng': 37.0077316}"
227,권소아청소년과의원, 031-947-3462, 경기도 파주시 송화로 11 아동동 팜스프링단지상가307호,126.7771625,37.7719171,"{'name': '권소아청소년과의원', 'number': ' 031-947-3462', 'address': ' 경기도 파주시 송화로 11 아동동 팜스프링단지상가307호', 'lat': 126.7771625, 'lng': 37.7719171}"
228,그레이스병원, 031-901-4000, 경기도 고양시 일산동구 중앙로 1073 24층백석동 지하2층,126.7851261,37.6447568,"{'name': '그레이스병원', 'number': ' 031-901-4000', 'address': ' 경기도 고양시 일산동구 중앙로 1073 24층백석동 지하2층', 'lat': 126.7851261, 'lng': 37.6447568}"
229,그레이스소아청소년과의원, 031-375-1271, 경기도 화성시 동탄순환대로 689 영천동 삼성메디컬프라자303호,127.1107149,37.2062511,"{'name': '그레이스소아청소년과의원', 'number': ' 031-375-1271', 'address': ' 경기도 화성시 동탄순환대로 689 영천동 삼성메디컬프라자303호', 'lat': 127.1107149, 'lng': 37.2062511}"
230,그린소아청소년과의원, 031-796-0214, 경기도 하남시 신장로 151 덕풍동 대동피렌체206,127.2016472,37.5395061,"{'name': '그린소아청소년과의원', 'number': ' 031-796-0214', 'address': ' 경기도 하남시 신장로 151 덕풍동 대동피렌체206', 'lat': 127.2016472, 'lng': 37.5395061}"
231,그린힐의원, 031-376-6075, 경기도 오산시 발안로 1367 누읍동202호 ,127.0478546,37.142263,"{'name': '그린힐의원', 'number': ' 031-376-6075', 'address': ' 경기도 오산시 발안로 1367 누읍동202호 ', 'lat': 127.0478546, 'lng': 37.142263}"
232,근로복지공단안산병원, 031-500-1105, 경기도 안산시 상록구 구룡로 87 일동 ,126.874139,37.3167269,"{'name': '근로복지공단안산병원', 'number': ' 031-500-1105', 'address': ' 경기도 안산시 상록구 구룡로 87 일동 ', 'lat': 126.874139, 'lng': 37.3167269}"
233,금강소아청소년과의원, 031-638-0118, 경기도 이천시 이섭대천로 1272 창전동 금강의원,127.4473589,37.2839369,"{'name': '금강소아청소년과의원', 'number': ' 031-638-0118', 'address': ' 경기도 이천시 이섭대천로 1272 창전동 금강의원', 'lat': 127.4473589, 'lng': 37.2839369}"
234,금곡의원, 031-559-7591, 경기도 남양주시 홍유릉로 290-4 금곡동 ,127.2017093,37.6276964,"{'name': '금곡의원', 'number': ' 031-559-7591', 'address': ' 경기도 남양주시 홍유릉로 290-4 금곡동 ', 'lat': 127.2017093, 'lng': 37.6276964}"
235,금동소아청소년과의원, 031-734-5678, 경기도 성남시 중원구 산성대로372번길 3 금광동 ,127.157521,37.445236,"{'name': '금동소아청소년과의원', 'number': ' 031-734-5678', 'address': ' 경기도 성남시 중원구 산성대로372번길 3 금광동 ', 'lat': 127.157521, 'lng': 37.445236}"
236,기독의원, 031-322-1512, 경기도 용인시 처인구 백암면 백암로 217 2층 ,127.3736593,37.1655282,"{'name': '기독의원', 'number': ' 031-322-1512', 'address': ' 경기도 용인시 처인구 백암면 백암로 217 2층 ', 'lat': 127.3736593, 'lng': 37.1655282}"
237,기린웰소아청소년과의원, 031-679-0140, 경기도 용인시 기흥구 동백죽전대로 444 중동 쥬네브썬월드빌딩503호,127.1515924,37.2779916,"{'name': '기린웰소아청소년과의원', 'number': ' 031-679-0140', 'address': ' 경기도 용인시 기흥구 동백죽전대로 444 중동 쥬네브썬월드빌딩503호', 'lat': 127.1515924, 'lng': 37.2779916}"
238,기분조은이비인후과의원, 031-486-4652, 경기도 안산시 단원구 선부광장1로 56 선부동 일성미즈마트308호,126.8107175,37.336608,"{'name': '기분조은이비인후과의원', 'number': ' 031-486-4652', 'address': ' 경기도 안산시 단원구 선부광장1로 56 선부동 일성미즈마트308호', 'lat': 126.8107175, 'lng': 37.336608}"
239,기분조은이비인후과의원, 031-574-2438, 경기도 남양주시 오남읍 진건오남로 812 201호 ,127.2026117,37.6989647,"{'name': '기분조은이비인후과의원', 'number': ' 031-574-2438', 'address': ' 경기도 남양주시 오남읍 진건오남로 812 201호 ', 'lat': 127.2026117, 'lng': 37.6989647}"
240,길내과의원, 031-666-6902, 경기도 평택시 관광특구로 19 서정동3층 ,127.0609136,37.0672659,"{'name': '길내과의원', 'number': ' 031-666-6902', 'address': ' 경기도 평택시 관광특구로 19 서정동3층 ', 'lat': 127.0609136, 'lng': 37.0672659}"
241,길내과의원, 031-844-4667, 경기도 의정부시 평화로 660 가능동 동진빌딩3층,127.0448185,37.7508788,"{'name': '길내과의원', 'number': ' 031-844-4667', 'address': ' 경기도 의정부시 평화로 660 가능동 동진빌딩3층', 'lat': 127.0448185, 'lng': 37.7508788}"
242,김가정의원, 031-358-3323, 경기도 화성시 우정읍 조암남로 12  349-5  ,0.0,0.0,"{'name': '김가정의원', 'number': ' 031-358-3323', 'address': ' 경기도 화성시 우정읍 조암남로 12  349-5  ', 'lat': 0.0, 'lng': 0.0}"
243,김가정의학과의원, 032-323-5525, 경기도 부천시 장말로 102 상동 반달마을아파트207호,126.752433,37.4934828,"{'name': '김가정의학과의원', 'number': ' 032-323-5525', 'address': ' 경기도 부천시 장말로 102 상동 반달마을아파트207호', 'lat': 126.752433, 'lng': 37.4934828}"
244,김경범소아청소년과의원, 031-491-5275, 경기도 시흥시 도일로135번길 4 거모동 빅타운302호,126.7846241,37.3425823,"{'name': '김경범소아청소년과의원', 'number': ' 031-491-5275', 'address': ' 경기도 시흥시 도일로135번길 4 거모동 빅타운302호', 'lat': 126.7846241, 'lng': 37.3425823}"
245,김경신소아청소년과의원, 031-246-7067, 경기도 수원시 장안구 파장로 37 파장동 ,126.9963336,37.3051752,"{'name': '김경신소아청소년과의원', 'number': ' 031-246-7067', 'address': ' 경기도 수원시 장안구 파장로 37 파장동 ', 'lat': 126.9963336, 'lng': 37.3051752}"
246,김경욱내과의원, 031-595-8575, 경기도 남양주시 평내로29번길 41 평내동 메인플라자202호,127.2349756,37.6454042,"{'name': '김경욱내과의원', 'number': ' 031-595-8575', 'address': ' 경기도 남양주시 평내로29번길 41 평내동 메인플라자202호', 'lat': 127.2349756, 'lng': 37.6454042}"
247,김곤의원, 031-557-2824, 경기도 구리시 건원대로 56 인창동 삼보아파트상가202호,127.1407155,37.6070574,"{'name': '김곤의원', 'number': ' 031-557-2824', 'address': ' 경기도 구리시 건원대로 56 인창동 삼보아파트상가202호', 'lat': 127.1407155, 'lng': 37.6070574}"
248,김광정소아과의원, 032-613-7007, 경기도 부천시 경인로248번길 7 심곡본동 ,126.7832402,37.4827658,"{'name': '김광정소아과의원', 'number': ' 032-613-7007', 'address': ' 경기도 부천시 경인로248번길 7 심곡본동 ', 'lat': 126.7832402, 'lng': 37.4827658}"
249,김광호따뜻한의원, 031-461-8800, 경기도 의왕시 부곡시장길 35 삼동 ,126.9527538,37.3187272,"{'name': '김광호따뜻한의원', 'number': ' 031-461-8800', 'address': ' 경기도 의왕시 부곡시장길 35 삼동 ', 'lat': 126.9527538, 'lng': 37.3187272}"
250,김규엽소아청소년과의원, 031-425-7688, 경기도 의왕시 내손로 76 내손동 보우상가2층2호,126.9794527,37.3868263,"{'name': '김규엽소아청소년과의원', 'number': ' 031-425-7688', 'address': ' 경기도 의왕시 내손로 76 내손동 보우상가2층2호', 'lat': 126.9794527, 'lng': 37.3868263}"
251,김규영서울소아과의원, 031-381-1188, 경기도 안양시 동안구 귀인로 212 평촌동 번영빌딩3층,126.9623937,37.3858236,"{'name': '김규영서울소아과의원', 'number': ' 031-381-1188', 'address': ' 경기도 안양시 동안구 귀인로 212 평촌동 번영빌딩3층', 'lat': 126.9623937, 'lng': 37.3858236}"
252,김기범내과의원, 031-948-1551, 경기도 파주시 가온로 27 목동동 월드메르디앙1차아파트상가동201호,126.7429978,37.7270405,"{'name': '김기범내과의원', 'number': ' 031-948-1551', 'address': ' 경기도 파주시 가온로 27 목동동 월드메르디앙1차아파트상가동201호', 'lat': 126.7429978, 'lng': 37.7270405}"
253,김기숙의원, 032-351-7585, 경기도 부천시 소사로 191 소사본동 소사메디컬3층,126.7953005,37.475358,"{'name': '김기숙의원', 'number': ' 032-351-7585', 'address': ' 경기도 부천시 소사로 191 소사본동 소사메디컬3층', 'lat': 126.7953005, 'lng': 37.475358}"
254,김나연소아과의원, 031-852-4211, 경기도 의정부시 부용로213번길 14 용현동 성지빌딩201호,127.0806518,37.7500403,"{'name': '김나연소아과의원', 'number': ' 031-852-4211', 'address': ' 경기도 의정부시 부용로213번길 14 용현동 성지빌딩201호', 'lat': 127.0806518, 'lng': 37.7500403}"
255,김내과의원, 031-203-7551, 경기도 수원시 영통구 봉영로 1767 영통동 한솔프라자111호,127.0816074,37.2667522,"{'name': '김내과의원', 'number': ' 031-203-7551', 'address': ' 경기도 수원시 영통구 봉영로 1767 영통동 한솔프라자111호', 'lat': 127.0816074, 'lng': 37.2667522}"
256,김내과의원, 031-322-8275, 경기도 용인시 처인구 금령로71번길 16 김량장동 대흥빌딩204호,127.2039807,37.2366049,"{'name': '김내과의원', 'number': ' 031-322-8275', 'address': ' 경기도 용인시 처인구 금령로71번길 16 김량장동 대흥빌딩204호', 'lat': 127.2039807, 'lng': 37.2366049}"
257,김대일소아청소년과의원, 031-762-4501, 경기도 광주시 초월읍 경충대로 912 3층307 308,127.3127616,37.3640132,"{'name': '김대일소아청소년과의원', 'number': ' 031-762-4501', 'address': ' 경기도 광주시 초월읍 경충대로 912 3층307 308', 'lat': 127.3127616, 'lng': 37.3640132}"
258,김덕하소아청소년과의원, 031-613-6275, 경기도 화성시 동탄지성로 134 능동 한솔프라자402호,127.0609803,37.209571,"{'name': '김덕하소아청소년과의원', 'number': ' 031-613-6275', 'address': ' 경기도 화성시 동탄지성로 134 능동 한솔프라자402호', 'lat': 127.0609803, 'lng': 37.209571}"
259,김두희가정의학과의원, 031-665-6765, 경기도 평택시 점촌로32번길 3 서정동2층 ,127.0578,37.0631553,"{'name': '김두희가정의학과의원', 'number': ' 031-665-6765', 'address': ' 경기도 평택시 점촌로32번길 3 서정동2층 ', 'lat': 127.0578, 'lng': 37.0631553}"
260,김란미즈소아청소년과의원, 031-772-2163, 경기도 양평군 양평읍 시민로 12  199-1  ,0.0,0.0,"{'name': '김란미즈소아청소년과의원', 'number': ' 031-772-2163', 'address': ' 경기도 양평군 양평읍 시민로 12  199-1  ', 'lat': 0.0, 'lng': 0.0}"
261,김민희소아청소년과의원, 031-215-5052, 경기도 수원시 영통구 효원로 363 매탄동 두산위브하늘채B상가310호,127.041401,37.2622858,"{'name': '김민희소아청소년과의원', 'number': ' 031-215-5052', 'address': ' 경기도 수원시 영통구 효원로 363 매탄동 두산위브하늘채B상가310호', 'lat': 127.041401, 'lng': 37.2622858}"
262,김병수내과의원, 031-473-3575, 경기도 안양시 만안구 석천로 181 석수동 ,126.9088499,37.4127575,"{'name': '김병수내과의원', 'number': ' 031-473-3575', 'address': ' 경기도 안양시 만안구 석천로 181 석수동 ', 'lat': 126.9088499, 'lng': 37.4127575}"
263,김병연소아청소년과의원, 031-214-1600, 경기도 용인시 수지구 광교중앙로 320 상현동3층302호 ,127.0698739,37.2983673,"{'name': '김병연소아청소년과의원', 'number': ' 031-214-1600', 'address': ' 경기도 용인시 수지구 광교중앙로 320 상현동3층302호 ', 'lat': 127.0698739, 'lng': 37.2983673}"
264,김상현소아청소년과의원, 031-372-1760, 경기도 오산시 운암로 113 오산동 중앙프라자203호,127.0779656,37.1563805,"{'name': '김상현소아청소년과의원', 'number': ' 031-372-1760', 'address': ' 경기도 오산시 운암로 113 오산동 중앙프라자203호', 'lat': 127.0779656, 'lng': 37.1563805}"
265,김성우의원, 031-374-2509, 경기도 오산시 오산로 68 갈곶동 ,127.0693442,37.1327849,"{'name': '김성우의원', 'number': ' 031-374-2509', 'address': ' 경기도 오산시 오산로 68 갈곶동 ', 'lat': 127.0693442, 'lng': 37.1327849}"
266,김성진내과의원, 031-347-4800, 경기도 군포시 고산로 693 산본동 하나로빌딩3층301호,126.9350299,37.3719892,"{'name': '김성진내과의원', 'number': ' 031-347-4800', 'address': ' 경기도 군포시 고산로 693 산본동 하나로빌딩3층301호', 'lat': 126.9350299, 'lng': 37.3719892}"
267,김소아청소년과의원, 031-701-8600, 경기도 성남시 분당구 동판교로 92 백현동 백현마을가상가동2층202호,127.1179125,37.3897806,"{'name': '김소아청소년과의원', 'number': ' 031-701-8600', 'address': ' 경기도 성남시 분당구 동판교로 92 백현동 백현마을가상가동2층202호', 'lat': 127.1179125, 'lng': 37.3897806}"
268,김승범가정의학과의원, 031-364-8119, 경기도 안산시 단원구 선삼로 21 선부동1층 ,126.8156027,37.3448301,"{'name': '김승범가정의학과의원', 'number': ' 031-364-8119', 'address': ' 경기도 안산시 단원구 선삼로 21 선부동1층 ', 'lat': 126.8156027, 'lng': 37.3448301}"
269,김승주소아청소년과의원, 032-675-0307, 경기도 부천시 소사로 791 원종동 ,126.8045339,37.5267551,"{'name': '김승주소아청소년과의원', 'number': ' 032-675-0307', 'address': ' 경기도 부천시 소사로 791 원종동 ', 'lat': 126.8045339, 'lng': 37.5267551}"
270,김앤리소아청소년과의원, 032-214-0077, 경기도 부천시 소향로 51 상동 메디워즈,126.75356,37.503472,"{'name': '김앤리소아청소년과의원', 'number': ' 032-214-0077', 'address': ' 경기도 부천시 소향로 51 상동 메디워즈', 'lat': 126.75356, 'lng': 37.503472}"
271,김앤박이비인후과의원, 031-205-5633, 경기도 수원시 영통구 봉영로 1569 영통동 뉴월드프라자304호,127.0710183,37.2520797,"{'name': '김앤박이비인후과의원', 'number': ' 031-205-5633', 'address': ' 경기도 수원시 영통구 봉영로 1569 영통동 뉴월드프라자304호', 'lat': 127.0710183, 'lng': 37.2520797}"
272,김앤반소아청소년과의원, 031-733-1885, 경기도 성남시 중원구 산성대로 530 은행동 ,127.1646807,37.458019,"{'name': '김앤반소아청소년과의원', 'number': ' 031-733-1885', 'address': ' 경기도 성남시 중원구 산성대로 530 은행동 ', 'lat': 127.1646807, 'lng': 37.458019}"
273,김앤오소아청소년과의원, 031-988-6383, 경기도 김포시 김포한강1로 227 운양동 광장프라자307호,126.6825794,37.6541506,"{'name': '김앤오소아청소년과의원', 'number': ' 031-988-6383', 'address': ' 경기도 김포시 김포한강1로 227 운양동 광장프라자307호', 'lat': 126.6825794, 'lng': 37.6541506}"
274,김앤정소아청소년과의원, 031-948-0275, 경기도 파주시 청석로 268 동패동 미소시티402,126.7176509,37.7258062,"{'name': '김앤정소아청소년과의원', 'number': ' 031-948-0275', 'address': ' 경기도 파주시 청석로 268 동패동 미소시티402', 'lat': 126.7176509, 'lng': 37.7258062}"
275,김연종내과의원, 031-851-9860, 경기도 의정부시 용민로7번길 5 용현동 ,127.0795432,37.7345669,"{'name': '김연종내과의원', 'number': ' 031-851-9860', 'address': ' 경기도 의정부시 용민로7번길 5 용현동 ', 'lat': 127.0795432, 'lng': 37.7345669}"
276,김영국소아청소년과의원, 031-204-7988, 경기도 수원시 영통구 영통로 509 영통동 ,127.0775104,37.2641671,"{'name': '김영국소아청소년과의원', 'number': ' 031-204-7988', 'address': ' 경기도 수원시 영통구 영통로 509 영통동 ', 'lat': 127.0775104, 'lng': 37.2641671}"
277,김영수내과의원, 031-718-1497, 경기도 성남시 분당구 백현로 206 정자동 한솔근린상가101103호,127.1188314,37.3682595,"{'name': '김영수내과의원', 'number': ' 031-718-1497', 'address': ' 경기도 성남시 분당구 백현로 206 정자동 한솔근린상가101103호', 'lat': 127.1188314, 'lng': 37.3682595}"
278,김영환소아과의원, 031-398-5225, 경기도 군포시 광정로 25-16 금정동 퇴계종합상가207,126.9317618,37.3558382,"{'name': '김영환소아과의원', 'number': ' 031-398-5225', 'address': ' 경기도 군포시 광정로 25-16 금정동 퇴계종합상가207', 'lat': 126.9317618, 'lng': 37.3558382}"
279,김영희의원, 032-343-0636, 경기도 부천시 범안로 6 괴안동 ,126.8053327,37.4808212,"{'name': '김영희의원', 'number': ' 032-343-0636', 'address': ' 경기도 부천시 범안로 6 괴안동 ', 'lat': 126.8053327, 'lng': 37.4808212}"
280,김외과의원, 031-585-2200, 경기도 가평군 조종면 현창로 39 김의과의원 ,127.3481264,37.818295,"{'name': '김외과의원', 'number': ' 031-585-2200', 'address': ' 경기도 가평군 조종면 현창로 39 김의과의원 ', 'lat': 127.3481264, 'lng': 37.818295}"
281,김원섭내과의원, 031-922-9922, 경기도 고양시 일산서구 산현로 15 탄현동 무광프라자304호,126.763247,37.6896008,"{'name': '김원섭내과의원', 'number': ' 031-922-9922', 'address': ' 경기도 고양시 일산서구 산현로 15 탄현동 무광프라자304호', 'lat': 126.763247, 'lng': 37.6896008}"
282,김은실한재희소아과의원, 031-979-2237, 경기도 고양시 덕양구 충장로152번길 47 행신동 햇빛마을20단지상가,126.8381216,37.6246408,"{'name': '김은실한재희소아과의원', 'number': ' 031-979-2237', 'address': ' 경기도 고양시 덕양구 충장로152번길 47 행신동 햇빛마을20단지상가', 'lat': 126.8381216, 'lng': 37.6246408}"
283,김이비인후과의원, 031-668-6882, 경기도 평택시 관광특구로 19 서정동3층 ,127.0609136,37.0672659,"{'name': '김이비인후과의원', 'number': ' 031-668-6882', 'address': ' 경기도 평택시 관광특구로 19 서정동3층 ', 'lat': 127.0609136, 'lng': 37.0672659}"
284,김장욱이비인후과의원, 031-447-7577, 경기도 안양시 만안구 병목안로 83 안양동 성원아파트상가2층,126.913356,37.3947769,"{'name': '김장욱이비인후과의원', 'number': ' 031-447-7577', 'address': ' 경기도 안양시 만안구 병목안로 83 안양동 성원아파트상가2층', 'lat': 126.913356, 'lng': 37.3947769}"
285,김정오소아과의원, 031-453-3369, 경기도 안양시 동안구 경수대로 466 호계동 화일빌딩203호,126.9595555,37.3646631,"{'name': '김정오소아과의원', 'number': ' 031-453-3369', 'address': ' 경기도 안양시 동안구 경수대로 466 호계동 화일빌딩203호', 'lat': 126.9595555, 'lng': 37.3646631}"
286,김정은소아청소년과의원, 031-362-6236, 경기도 시흥시 수인로 3378 신천동 반석프라자7층,126.7837717,37.4413516,"{'name': '김정은소아청소년과의원', 'number': ' 031-362-6236', 'address': ' 경기도 시흥시 수인로 3378 신천동 반석프라자7층', 'lat': 126.7837717, 'lng': 37.4413516}"
287,김정하이비인후과의원, 031-576-3137, 경기도 남양주시 와부읍 덕소로97번길 4 중앙프라자302호 ,127.2127203,37.5855744,"{'name': '김정하이비인후과의원', 'number': ' 031-576-3137', 'address': ' 경기도 남양주시 와부읍 덕소로97번길 4 중앙프라자302호 ', 'lat': 127.2127203, 'lng': 37.5855744}"
288,김정훈이비인후과의원, 031-274-8275, 경기도 용인시 기흥구 한보라1로 14 보라동 ,127.1095983,37.2535809,"{'name': '김정훈이비인후과의원', 'number': ' 031-274-8275', 'address': ' 경기도 용인시 기흥구 한보라1로 14 보라동 ', 'lat': 127.1095983, 'lng': 37.2535809}"
289,김종규이비인후과의원, 031-872-8771, 경기도 의정부시 평화로 375 호원동 회룡프라자401호,127.0478573,37.7252733,"{'name': '김종규이비인후과의원', 'number': ' 031-872-8771', 'address': ' 경기도 의정부시 평화로 375 호원동 회룡프라자401호', 'lat': 127.0478573, 'lng': 37.7252733}"
290,김종완소아청소년과의원, 031-792-6527, 경기도 하남시 신장로 156 덕풍동 하남프라자303호,127.2019474,37.5399146,"{'name': '김종완소아청소년과의원', 'number': ' 031-792-6527', 'address': ' 경기도 하남시 신장로 156 덕풍동 하남프라자303호', 'lat': 127.2019474, 'lng': 37.5399146}"
291,김종찬소아과의원, 032-661-9348, 경기도 부천시 중동로 48 송내동 대우프라자502호,126.7642186,37.4844106,"{'name': '김종찬소아과의원', 'number': ' 032-661-9348', 'address': ' 경기도 부천시 중동로 48 송내동 대우프라자502호', 'lat': 126.7642186, 'lng': 37.4844106}"
292,김종화푸른소아과의원, 031-266-3010, 경기도 용인시 수지구 문정로 46 풍덕천동 한길타운3층,127.0946993,37.3244686,"{'name': '김종화푸른소아과의원', 'number': ' 031-266-3010', 'address': ' 경기도 용인시 수지구 문정로 46 풍덕천동 한길타운3층', 'lat': 127.0946993, 'lng': 37.3244686}"
293,김진홍의원, 031-735-1811, 경기도 성남시 중원구 산성대로552번길 15 은행동가동208호 ,127.1706654,37.4598428,"{'name': '김진홍의원', 'number': ' 031-735-1811', 'address': ' 경기도 성남시 중원구 산성대로552번길 15 은행동가동208호 ', 'lat': 127.1706654, 'lng': 37.4598428}"
294,김찬호내과가정의학과의원, 032-342-0453, 경기도 부천시 역곡로 24 역곡동 덕산빌딩401,126.811105,37.4874076,"{'name': '김찬호내과가정의학과의원', 'number': ' 032-342-0453', 'address': ' 경기도 부천시 역곡로 24 역곡동 덕산빌딩401', 'lat': 126.811105, 'lng': 37.4874076}"
295,김철하소아청소년과의원, 031-593-9210, 경기도 남양주시 화도읍 마석중앙로 56-5 금용빌딩3층 ,127.3060175,37.6524836,"{'name': '김철하소아청소년과의원', 'number': ' 031-593-9210', 'address': ' 경기도 남양주시 화도읍 마석중앙로 56-5 금용빌딩3층 ', 'lat': 127.3060175, 'lng': 37.6524836}"
296,김태빈내과의원, 031-975-8402, 경기도 고양시 일산동구 중산로 245 중산동 대성상가302호,126.7803663,37.6938741,"{'name': '김태빈내과의원', 'number': ' 031-975-8402', 'address': ' 경기도 고양시 일산동구 중산로 245 중산동 대성상가302호', 'lat': 126.7803663, 'lng': 37.6938741}"
297,김태숙소아청소년과의원, 031-458-9982, 경기도 안양시 동안구 경수대로 536 호계동 정암빌딩303호,126.9583118,37.3706915,"{'name': '김태숙소아청소년과의원', 'number': ' 031-458-9982', 'address': ' 경기도 안양시 동안구 경수대로 536 호계동 정암빌딩303호', 'lat': 126.9583118, 'lng': 37.3706915}"
298,김태형내과의원, 031-845-7533, 경기도 의정부시 추동로 15 신곡동 대명프라자201호,127.0577988,37.7432494,"{'name': '김태형내과의원', 'number': ' 031-845-7533', 'address': ' 경기도 의정부시 추동로 15 신곡동 대명프라자201호', 'lat': 127.0577988, 'lng': 37.7432494}"
299,김포하나이비인후과의원, 031-981-7979, 경기도 김포시 김포한강1로 227 운양동광장프라자306호 ,126.6825794,37.6541506,"{'name': '김포하나이비인후과의원', 'number': ' 031-981-7979', 'address': ' 경기도 김포시 김포한강1로 227 운양동광장프라자306호 ', 'lat': 126.6825794, 'lng': 37.6541506}"
300,김현미소아청소년과의원, 031-982-5412, 경기도 김포시 봉화로182번길 26 북변동304호 ,126.7029777,37.6286086,"{'name': '김현미소아청소년과의원', 'number': ' 031-982-5412', 'address': ' 경기도 김포시 봉화로182번길 26 북변동304호 ', 'lat': 126.7029777, 'lng': 37.6286086}"
301,김현소아청소년과의원, 031-755-4235, 경기도 성남시 중원구 제일로 37 성남동2층 ,127.1365922,37.4303316,"{'name': '김현소아청소년과의원', 'number': ' 031-755-4235', 'address': ' 경기도 성남시 중원구 제일로 37 성남동2층 ', 'lat': 127.1365922, 'lng': 37.4303316}"
302,김형주내과의원, 031-861-7780, 경기도 양주시 회정로 134 덕정동두리테크4층403호덕정동 ,127.0683677,37.8371866,"{'name': '김형주내과의원', 'number': ' 031-861-7780', 'address': ' 경기도 양주시 회정로 134 덕정동두리테크4층403호덕정동 ', 'lat': 127.0683677, 'lng': 37.8371866}"
303,김호수소아과의원, 031-711-5493, 경기도 성남시 분당구 돌마로356번길 3 수내동 그랜드빌딩309호,127.1233338,37.3697287,"{'name': '김호수소아과의원', 'number': ' 031-711-5493', 'address': ' 경기도 성남시 분당구 돌마로356번길 3 수내동 그랜드빌딩309호', 'lat': 127.1233338, 'lng': 37.3697287}"
304,김희승내과의원, 031-432-5544, 경기도 시흥시 군서마을로 36 정왕동2층 ,126.7478296,37.3452977,"{'name': '김희승내과의원', 'number': ' 031-432-5544', 'address': ' 경기도 시흥시 군서마을로 36 정왕동2층 ', 'lat': 126.7478296, 'lng': 37.3452977}"
305,김희연가정의학과의원, 031-285-5548, 경기도 용인시 기흥구 용구대로 2398 마북동 연원마을벽산아파트상가동304호,127.1072655,37.3003045,"{'name': '김희연가정의학과의원', 'number': ' 031-285-5548', 'address': ' 경기도 용인시 기흥구 용구대로 2398 마북동 연원마을벽산아파트상가동304호', 'lat': 127.1072655, 'lng': 37.3003045}"
306,꾸러기소아청소년과의원, 031-316-9955, 경기도 시흥시 승지로60번길 25 능곡동 송죽센타프라자4012호,126.8122407,37.3679702,"{'name': '꾸러기소아청소년과의원', 'number': ' 031-316-9955', 'address': ' 경기도 시흥시 승지로60번길 25 능곡동 송죽센타프라자4012호', 'lat': 126.8122407, 'lng': 37.3679702}"
307,꾸러기소아청소년과의원, 031-466-9475, 경기도 안양시 만안구 박달로 504 박달동 ,126.9086766,37.4024085,"{'name': '꾸러기소아청소년과의원', 'number': ' 031-466-9475', 'address': ' 경기도 안양시 만안구 박달로 504 박달동 ', 'lat': 126.9086766, 'lng': 37.4024085}"
308,꾸러기소아청소년과의원, 031-482-6900, 경기도 안산시 단원구 선부광장1로 82 선부동 서림프라자,126.812663,37.335601,"{'name': '꾸러기소아청소년과의원', 'number': ' 031-482-6900', 'address': ' 경기도 안산시 단원구 선부광장1로 82 선부동 서림프라자', 'lat': 126.812663, 'lng': 37.335601}"
309,꾸러기소아청소년과의원, 031-896-2228, 경기도 용인시 수지구 만현로 88 상현동 상현종합상가2011호,127.0851746,37.3087346,"{'name': '꾸러기소아청소년과의원', 'number': ' 031-896-2228', 'address': ' 경기도 용인시 수지구 만현로 88 상현동 상현종합상가2011호', 'lat': 127.0851746, 'lng': 37.3087346}"
310,꿈나무소아청소년과의원, 031-503-2288, 경기도 시흥시 배곧3로 80 정왕동405호 ,126.7290674,37.3705496,"{'name': '꿈나무소아청소년과의원', 'number': ' 031-503-2288', 'address': ' 경기도 시흥시 배곧3로 80 정왕동405호 ', 'lat': 126.7290674, 'lng': 37.3705496}"
311,꿈마을연세가정의학과의원, 032-654-5454, 경기도 부천시 옥산로 65 중동 꿈마을제상가2층202호,126.7805647,37.4989683,"{'name': '꿈마을연세가정의학과의원', 'number': ' 032-654-5454', 'address': ' 경기도 부천시 옥산로 65 중동 꿈마을제상가2층202호', 'lat': 126.7805647, 'lng': 37.4989683}"
312,나너셋소아과의원, 031-982-8893, 경기도 김포시 전원로 40 장기동 전원마을상가동207호,126.684163,37.6468847,"{'name': '나너셋소아과의원', 'number': ' 031-982-8893', 'address': ' 경기도 김포시 전원로 40 장기동 전원마을상가동207호', 'lat': 126.684163, 'lng': 37.6468847}"
313,나눔가정의학과의원, 031-938-9962, 경기도 고양시 덕양구 행신로143번길 72-1 행신동 ,126.8313736,37.6226265,"{'name': '나눔가정의학과의원', 'number': ' 031-938-9962', 'address': ' 경기도 고양시 덕양구 행신로143번길 72-1 행신동 ', 'lat': 126.8313736, 'lng': 37.6226265}"
314,나라의원, 031-238-9234, 경기도 화성시 봉담읍 와우로 79 남수원타운201호 ,126.9746006,37.2139148,"{'name': '나라의원', 'number': ' 031-238-9234', 'address': ' 경기도 화성시 봉담읍 와우로 79 남수원타운201호 ', 'lat': 126.9746006, 'lng': 37.2139148}"
315,나래의원, 031-764-7525, 경기도 광주시 곤지암읍 평촌길 36  삼리 134-9  ,127.3257205,37.3564626,"{'name': '나래의원', 'number': ' 031-764-7525', 'address': ' 경기도 광주시 곤지암읍 평촌길 36  삼리 134-9  ', 'lat': 127.3257205, 'lng': 37.3564626}"
316,나룰소아청소년과의원, 031-795-1175, 경기도 하남시 덕풍동로 111-33 덕풍동 푸르지오시티오피스텔204호205호,127.2084165,37.5525882,"{'name': '나룰소아청소년과의원', 'number': ' 031-795-1175', 'address': ' 경기도 하남시 덕풍동로 111-33 덕풍동 푸르지오시티오피스텔204호205호', 'lat': 127.2084165, 'lng': 37.5525882}"
317,나리병원, 031-982-5700, 경기도 김포시 돌문로 99-99 사우동 ,0.0,0.0,"{'name': '나리병원', 'number': ' 031-982-5700', 'address': ' 경기도 김포시 돌문로 99-99 사우동 ', 'lat': 0.0, 'lng': 0.0}"
318,나무소아청소년과의원, 031-234-9116, 경기도 수원시 권선구 세권로 188 권선동2층 ,127.0246939,37.2554045,"{'name': '나무소아청소년과의원', 'number': ' 031-234-9116', 'address': ' 경기도 수원시 권선구 세권로 188 권선동2층 ', 'lat': 127.0246939, 'lng': 37.2554045}"
319,나무정원여성병원, 031-859-1231, 경기도 양주시 평화로1489번길 19-11 덕계동 ,127.0485189,37.8227457,"{'name': '나무정원여성병원', 'number': ' 031-859-1231', 'address': ' 경기도 양주시 평화로1489번길 19-11 덕계동 ', 'lat': 127.0485189, 'lng': 37.8227457}"
320,나비이비인후과의원, 031-795-8882, 경기도 하남시 미사강변대로 220 망월동403호 ,127.1843714,37.5692584,"{'name': '나비이비인후과의원', 'number': ' 031-795-8882', 'address': ' 경기도 하남시 미사강변대로 220 망월동403호 ', 'lat': 127.1843714, 'lng': 37.5692584}"
321,나우리가정의학과의원, 031-707-5975, 경기도 성남시 분당구 돌마로476번길 41 서현동 분당빌딩2층,127.1361476,37.3745166,"{'name': '나우리가정의학과의원', 'number': ' 031-707-5975', 'address': ' 경기도 성남시 분당구 돌마로476번길 41 서현동 분당빌딩2층', 'lat': 127.1361476, 'lng': 37.3745166}"
322,남사연합의원, 031-336-7561, 경기도 용인시 처인구 남사면 내기로 11 2층 ,127.1497758,37.114008,"{'name': '남사연합의원', 'number': ' 031-336-7561', 'address': ' 경기도 용인시 처인구 남사면 내기로 11 2층 ', 'lat': 127.1497758, 'lng': 37.114008}"
323,남성지소아과의원, 02-2685-1204, 경기도 광명시 광명로 841 광명동 동진프라자3층4호,126.8516879,37.4743377,"{'name': '남성지소아과의원', 'number': ' 02-2685-1204', 'address': ' 경기도 광명시 광명로 841 광명동 동진프라자3층4호', 'lat': 126.8516879, 'lng': 37.4743377}"
324,남양뉴타운외과의원, 031-366-7252, 경기도 화성시 남양읍 시청로 115 207292층 ,126.8263034,37.2007595,"{'name': '남양뉴타운외과의원', 'number': ' 031-366-7252', 'address': ' 경기도 화성시 남양읍 시청로 115 207292층 ', 'lat': 126.8263034, 'lng': 37.2007595}"
325,남양박내과의원, 031-356-0533, 경기도 화성시 남양성지로 139-1 남양동 국제포인트프라자303호,126.8183619,37.2090062,"{'name': '남양박내과의원', 'number': ' 031-356-0533', 'address': ' 경기도 화성시 남양성지로 139-1 남양동 국제포인트프라자303호', 'lat': 126.8183619, 'lng': 37.2090062}"
326,남양우리소아청소년과의원, 031-355-5657, 경기도 화성시 남양읍 남양성지로 135 3층남양우리소아청소년과의원 ,126.8180948,37.2089737,"{'name': '남양우리소아청소년과의원', 'number': ' 031-355-5657', 'address': ' 경기도 화성시 남양읍 남양성지로 135 3층남양우리소아청소년과의원 ', 'lat': 126.8180948, 'lng': 37.2089737}"
327,남양주 한양병원, 031-510-0114, 경기도 남양주시 오남읍 양지로 47-55    ,127.2043933,37.6823474,"{'name': '남양주 한양병원', 'number': ' 031-510-0114', 'address': ' 경기도 남양주시 오남읍 양지로 47-55    ', 'lat': 127.2043933, 'lng': 37.6823474}"
328,남양주백병원, 031-572-3111, 경기도 남양주시 진접읍 해밀예당1로 30-25 2층10층 ,127.1876278,37.7112828,"{'name': '남양주백병원', 'number': ' 031-572-3111', 'address': ' 경기도 남양주시 진접읍 해밀예당1로 30-25 2층10층 ', 'lat': 127.1876278, 'lng': 37.7112828}"
329,남형근소아청소년과의원, 031-734-5582, 경기도 성남시 수정구 공원로 322 신흥동 신동아파라디움184,127.152081,37.4433206,"{'name': '남형근소아청소년과의원', 'number': ' 031-734-5582', 'address': ' 경기도 성남시 수정구 공원로 322 신흥동 신동아파라디움184', 'lat': 127.152081, 'lng': 37.4433206}"
330,내동서울가정의학과의원, 032-679-7081, 경기도 부천시 삼작로 205-6 내동 2층일부2층,0.0,0.0,"{'name': '내동서울가정의학과의원', 'number': ' 032-679-7081', 'address': ' 경기도 부천시 삼작로 205-6 내동 2층일부2층', 'lat': 0.0, 'lng': 0.0}"
331,네이브키즈연세소아청소년과의원, 031-622-1777, 경기도 성남시 분당구 야탑로81번길 10 야탑동 분당아미고타워3층3091호,127.1282079,37.4106072,"{'name': '네이브키즈연세소아청소년과의원', 'number': ' 031-622-1777', 'address': ' 경기도 성남시 분당구 야탑로81번길 10 야탑동 분당아미고타워3층3091호', 'lat': 127.1282079, 'lng': 37.4106072}"
332,노상준가정의원, 031-984-3014, 경기도 김포시 봉화로181번길 31-20 감정동 ,126.7008954,37.6262718,"{'name': '노상준가정의원', 'number': ' 031-984-3014', 'address': ' 경기도 김포시 봉화로181번길 31-20 감정동 ', 'lat': 126.7008954, 'lng': 37.6262718}"
333,노아소아청소년과의원, 031-853-2698, 경기도 의정부시 체육로 306-14 녹양동 성해프라자,127.0414312,37.7604889,"{'name': '노아소아청소년과의원', 'number': ' 031-853-2698', 'address': ' 경기도 의정부시 체육로 306-14 녹양동 성해프라자', 'lat': 127.0414312, 'lng': 37.7604889}"
334,녹향의원, 031-310-5300, 경기도 시흥시 하중로 127 하중동 ,126.800415,37.3993353,"{'name': '녹향의원', 'number': ' 031-310-5300', 'address': ' 경기도 시흥시 하중로 127 하중동 ', 'lat': 126.800415, 'lng': 37.3993353}"
335,누가가정의학과의원, 031-918-8121, 경기도 고양시 일산서구 탄중로 518 일산동 ,126.7693042,37.6903163,"{'name': '누가가정의학과의원', 'number': ' 031-918-8121', 'address': ' 경기도 고양시 일산서구 탄중로 518 일산동 ', 'lat': 126.7693042, 'lng': 37.6903163}"
336,누가광명의원, 02-894-2376, 경기도 광명시 범안로 1045 하안동3층 ,126.8788428,37.462423,"{'name': '누가광명의원', 'number': ' 02-894-2376', 'address': ' 경기도 광명시 범안로 1045 하안동3층 ', 'lat': 126.8788428, 'lng': 37.462423}"
337,누가소아청소년과의원, 031-227-3083, 경기도 수원시 장안구 화산로125번길 5 천천동 천천푸르지오3층301,126.9804126,37.2943054,"{'name': '누가소아청소년과의원', 'number': ' 031-227-3083', 'address': ' 경기도 수원시 장안구 화산로125번길 5 천천동 천천푸르지오3층301', 'lat': 126.9804126, 'lng': 37.2943054}"
338,누가소아청소년과의원, 031-498-3375, 경기도 시흥시 함송로 21 정왕동 굿모닝프라자304호,126.7307048,37.3637903,"{'name': '누가소아청소년과의원', 'number': ' 031-498-3375', 'address': ' 경기도 시흥시 함송로 21 정왕동 굿모닝프라자304호', 'lat': 126.7307048, 'lng': 37.3637903}"
339,누가의원, 031-419-4870, 경기도 안산시 상록구 각골로 70 본오동 ,126.8729426,37.2957581,"{'name': '누가의원', 'number': ' 031-419-4870', 'address': ' 경기도 안산시 상록구 각골로 70 본오동 ', 'lat': 126.8729426, 'lng': 37.2957581}"
340,누가의원, 031-431-7776, 경기도 시흥시 함송로 21 정왕동 굿모닝프라자301호,126.7307048,37.3637903,"{'name': '누가의원', 'number': ' 031-431-7776', 'address': ' 경기도 시흥시 함송로 21 정왕동 굿모닝프라자301호', 'lat': 126.7307048, 'lng': 37.3637903}"
341,누가의원, 032-655-9598, 경기도 부천시 심곡로 73 심곡본동 ,126.7751398,37.47748,"{'name': '누가의원', 'number': ' 032-655-9598', 'address': ' 경기도 부천시 심곡로 73 심곡본동 ', 'lat': 126.7751398, 'lng': 37.47748}"
342,누가이비인후과의원, 031-274-7550, 경기도 용인시 기흥구 동백7로 73 동백동 경안빌딩,127.1596222,37.2820285,"{'name': '누가이비인후과의원', 'number': ' 031-274-7550', 'address': ' 경기도 용인시 기흥구 동백7로 73 동백동 경안빌딩', 'lat': 127.1596222, 'lng': 37.2820285}"
343,누리봄소아청소년과의원, 031-305-0077, 경기도 수원시 영통구 효원로 381 매탄동 새롬프라자16차304호,127.0433118,37.2592917,"{'name': '누리봄소아청소년과의원', 'number': ' 031-305-0077', 'address': ' 경기도 수원시 영통구 효원로 381 매탄동 새롬프라자16차304호', 'lat': 127.0433118, 'lng': 37.2592917}"
344,누리소아청소년과의원, 031-797-8255, 경기도 광주시 중앙로 101 경안동3층 ,127.2584046,37.4088212,"{'name': '누리소아청소년과의원', 'number': ' 031-797-8255', 'address': ' 경기도 광주시 중앙로 101 경안동3층 ', 'lat': 127.2584046, 'lng': 37.4088212}"
345,누리연합소아청소년과의원, 031-982-3993, 경기도 김포시 김포한강8로 163 마산동한강스퀘어빌딩3층304호 ,126.6433899,37.6370239,"{'name': '누리연합소아청소년과의원', 'number': ' 031-982-3993', 'address': ' 경기도 김포시 김포한강8로 163 마산동한강스퀘어빌딩3층304호 ', 'lat': 126.6433899, 'lng': 37.6370239}"
346,누리이비인후과의원, 031-462-7575, 경기도 의왕시 부곡시장3길 3 삼동 ,126.9524568,37.3190061,"{'name': '누리이비인후과의원', 'number': ' 031-462-7575', 'address': ' 경기도 의왕시 부곡시장3길 3 삼동 ', 'lat': 126.9524568, 'lng': 37.3190061}"
347,뉴연세의원, 031-595-2389, 경기도 남양주시 화도읍 경춘로2248번길 15 월산부영1단지 ,127.3379484,37.6546399,"{'name': '뉴연세의원', 'number': ' 031-595-2389', 'address': ' 경기도 남양주시 화도읍 경춘로2248번길 15 월산부영1단지 ', 'lat': 127.3379484, 'lng': 37.6546399}"
348,느티나무의료복지사회적협동조합 느티나무의원, 031-555-8005, 경기도 구리시 건원대로 36 인창동 화성골드프라자,127.1405086,37.604428,"{'name': '느티나무의료복지사회적협동조합 느티나무의원', 'number': ' 031-555-8005', 'address': ' 경기도 구리시 건원대로 36 인창동 화성골드프라자', 'lat': 127.1405086, 'lng': 37.604428}"
349,늘사랑가정의학과의원, 031-919-7054, 경기도 고양시 일산동구 일산로 442 정발산동2층 ,126.7779239,37.6736487,"{'name': '늘사랑가정의학과의원', 'number': ' 031-919-7054', 'address': ' 경기도 고양시 일산동구 일산로 442 정발산동2층 ', 'lat': 126.7779239, 'lng': 37.6736487}"
350,늘연세365의원, 031-445-7582, 경기도 안양시 만안구 안양로 340 안양동3 4층,126.91906,37.4019808,"{'name': '늘연세365의원', 'number': ' 031-445-7582', 'address': ' 경기도 안양시 만안구 안양로 340 안양동3 4층', 'lat': 126.91906, 'lng': 37.4019808}"
351,늘편한가정의학과의원, 031-214-0894, 경기도 수원시 영통구 중부대로246번길 51 매탄동 ,127.0418337,37.2727258,"{'name': '늘편한가정의학과의원', 'number': ' 031-214-0894', 'address': ' 경기도 수원시 영통구 중부대로246번길 51 매탄동 ', 'lat': 127.0418337, 'lng': 37.2727258}"
352,늘푸른가정의학과의원, 031-261-6655, 경기도 용인시 수지구 신봉2로 73 신봉동 태천빌딩2201호,127.0731762,37.3279907,"{'name': '늘푸른가정의학과의원', 'number': ' 031-261-6655', 'address': ' 경기도 용인시 수지구 신봉2로 73 신봉동 태천빌딩2201호', 'lat': 127.0731762, 'lng': 37.3279907}"
353,늘푸른가정의학과의원, 031-514-1300, 경기도 남양주시 화도읍 비룡로 341 2층 ,127.3038686,37.6814607,"{'name': '늘푸른가정의학과의원', 'number': ' 031-514-1300', 'address': ' 경기도 남양주시 화도읍 비룡로 341 2층 ', 'lat': 127.3038686, 'lng': 37.6814607}"
354,늘푸른소아과의원, 031-214-2142, 경기도 수원시 팔달구 중부대로143번길 29 우만동 ,127.0320314,37.279676,"{'name': '늘푸른소아과의원', 'number': ' 031-214-2142', 'address': ' 경기도 수원시 팔달구 중부대로143번길 29 우만동 ', 'lat': 127.0320314, 'lng': 37.279676}"
355,늘푸른소아과의원, 031-454-3729, 경기도 군포시 군포로 494 당동 당동빌딩204호,126.9448358,37.350452,"{'name': '늘푸른소아과의원', 'number': ' 031-454-3729', 'address': ' 경기도 군포시 군포로 494 당동 당동빌딩204호', 'lat': 126.9448358, 'lng': 37.350452}"
356,늘푸른연세미의원, 031-338-7255, 경기도 용인시 처인구 금령로 62 김량장동 위너스프라자501호,127.2032658,37.2346557,"{'name': '늘푸른연세미의원', 'number': ' 031-338-7255', 'address': ' 경기도 용인시 처인구 금령로 62 김량장동 위너스프라자501호', 'lat': 127.2032658, 'lng': 37.2346557}"
357,늘푸른의원, 031-577-3826, 경기도 남양주시 와부읍 덕소로 270 한강우성상가204 205,127.2235738,37.5778582,"{'name': '늘푸른의원', 'number': ' 031-577-3826', 'address': ' 경기도 남양주시 와부읍 덕소로 270 한강우성상가204 205', 'lat': 127.2235738, 'lng': 37.5778582}"
358,늘푸른의원, 031-584-1551, 경기도 가평군 설악면 신천중앙로 118 2층 ,127.4909875,37.6780301,"{'name': '늘푸른의원', 'number': ' 031-584-1551', 'address': ' 경기도 가평군 설악면 신천중앙로 118 2층 ', 'lat': 127.4909875, 'lng': 37.6780301}"
359,늘푸른의원, 031-794-3443, 경기도 하남시 덕산로 33 덕풍동 한솔리치빌아파트1단지상가201호202호206호,127.1978344,37.5325835,"{'name': '늘푸른의원', 'number': ' 031-794-3443', 'address': ' 경기도 하남시 덕산로 33 덕풍동 한솔리치빌아파트1단지상가201호202호206호', 'lat': 127.1978344, 'lng': 37.5325835}"
360,늘푸른이비인후과의원, 031-274-2577, 경기도 용인시 기흥구 구성3로28번길 30 청덕동 구성프라자,127.1521152,37.2961565,"{'name': '늘푸른이비인후과의원', 'number': ' 031-274-2577', 'address': ' 경기도 용인시 기흥구 구성3로28번길 30 청덕동 구성프라자', 'lat': 127.1521152, 'lng': 37.2961565}"
361,늘푸른이비인후과의원, 031-422-1841, 경기도 안양시 동안구 흥안대로456번길 82 평촌동 밀레니엄프라자303304호,126.9799672,37.3931657,"{'name': '늘푸른이비인후과의원', 'number': ' 031-422-1841', 'address': ' 경기도 안양시 동안구 흥안대로456번길 82 평촌동 밀레니엄프라자303304호', 'lat': 126.9799672, 'lng': 37.3931657}"
362,늘해랑소아청소년과의원, 031-714-1772, 경기도 성남시 분당구 내정로17번길 2 정자동 한솔프라자4011호,127.114471,37.3621427,"{'name': '늘해랑소아청소년과의원', 'number': ' 031-714-1772', 'address': ' 경기도 성남시 분당구 내정로17번길 2 정자동 한솔프라자4011호', 'lat': 127.114471, 'lng': 37.3621427}"
363,능곡의원, 031-972-1112, 경기도 고양시 덕양구 지도로 105 토당동 ,126.823428,37.6264616,"{'name': '능곡의원', 'number': ' 031-972-1112', 'address': ' 경기도 고양시 덕양구 지도로 105 토당동 ', 'lat': 126.823428, 'lng': 37.6264616}"
364,능골성모의원, 031-765-8275, 경기도 광주시 오포읍 오포로 129 능골성모의원 ,127.1802719,37.3444716,"{'name': '능골성모의원', 'number': ' 031-765-8275', 'address': ' 경기도 광주시 오포읍 오포로 129 능골성모의원 ', 'lat': 127.1802719, 'lng': 37.3444716}"
365,다나소아청소년과의원, 031-593-8270, 경기도 남양주시 늘을2로 27 호평동 이마트남양주점5층,127.2430989,37.6550106,"{'name': '다나소아청소년과의원', 'number': ' 031-593-8270', 'address': ' 경기도 남양주시 늘을2로 27 호평동 이마트남양주점5층', 'lat': 127.2430989, 'lng': 37.6550106}"
366,다나소아청소년과의원, 031-855-1001, 경기도 의정부시 외미로 95 호원동 하나프라자305,127.045909,37.7244783,"{'name': '다나소아청소년과의원', 'number': ' 031-855-1001', 'address': ' 경기도 의정부시 외미로 95 호원동 하나프라자305', 'lat': 127.045909, 'lng': 37.7244783}"
367,다나의원, 031-527-5300, 경기도 남양주시 오남읍 진건오남로 788 2층 ,127.2038852,37.6974852,"{'name': '다나의원', 'number': ' 031-527-5300', 'address': ' 경기도 남양주시 오남읍 진건오남로 788 2층 ', 'lat': 127.2038852, 'lng': 37.6974852}"
368,다나이비인후과의원, 031-274-8642, 경기도 용인시 기흥구 강남동로 10 구갈동 강남피아203호,127.1282208,37.2712263,"{'name': '다나이비인후과의원', 'number': ' 031-274-8642', 'address': ' 경기도 용인시 기흥구 강남동로 10 구갈동 강남피아203호', 'lat': 127.1282208, 'lng': 37.2712263}"
369,다나이비인후과의원, 031-733-2586, 경기도 성남시 중원구 금상로 18 상대원동4층 ,127.1597224,37.4375133,"{'name': '다나이비인후과의원', 'number': ' 031-733-2586', 'address': ' 경기도 성남시 중원구 금상로 18 상대원동4층 ', 'lat': 127.1597224, 'lng': 37.4375133}"
370,다나이비인후과의원, 031-943-7077, 경기도 파주시 와석순환로 72 야당동 홍원프라자402호,126.751298,37.7106342,"{'name': '다나이비인후과의원', 'number': ' 031-943-7077', 'address': ' 경기도 파주시 와석순환로 72 야당동 홍원프라자402호', 'lat': 126.751298, 'lng': 37.7106342}"
371,다니엘소아청소년과의원, 031-791-7588, 경기도 하남시 미사강변대로 228 망월동 미사메디프라자301호,127.1839902,37.5698862,"{'name': '다니엘소아청소년과의원', 'number': ' 031-791-7588', 'address': ' 경기도 하남시 미사강변대로 228 망월동 미사메디프라자301호', 'lat': 127.1839902, 'lng': 37.5698862}"
372,다니엘소아청소년과의원, 031-948-1035, 경기도 파주시 미래로 612 와동동미봉프라자402호 ,126.7513646,37.7318621,"{'name': '다니엘소아청소년과의원', 'number': ' 031-948-1035', 'address': ' 경기도 파주시 미래로 612 와동동미봉프라자402호 ', 'lat': 126.7513646, 'lng': 37.7318621}"
373,다사랑이비인후과의원, 02-804-0171, 경기도 광명시 하안로 289 하안동2층202호 ,126.8801898,37.4617057,"{'name': '다사랑이비인후과의원', 'number': ' 02-804-0171', 'address': ' 경기도 광명시 하안로 289 하안동2층202호 ', 'lat': 126.8801898, 'lng': 37.4617057}"
374,다산의료소비자생활협동조합정석소아청소년과병원, 031-573-6678, 경기도 남양주시 진접읍 해밀예당1로 221 지안빌딩6 7,127.2027125,37.720632,"{'name': '다산의료소비자생활협동조합정석소아청소년과병원', 'number': ' 031-573-6678', 'address': ' 경기도 남양주시 진접읍 해밀예당1로 221 지안빌딩6 7', 'lat': 127.2027125, 'lng': 37.720632}"
375,다솔내과의원, 031-293-0971, 경기도 수원시 권선구 탑동로 9 탑동2층 ,126.9749666,37.2696718,"{'name': '다솔내과의원', 'number': ' 031-293-0971', 'address': ' 경기도 수원시 권선구 탑동로 9 탑동2층 ', 'lat': 126.9749666, 'lng': 37.2696718}"
376,다솜가정의원, 032-682-9400, 경기도 부천시 역곡로490번길 108 고강동 ,126.8219444,37.5275849,"{'name': '다솜가정의원', 'number': ' 032-682-9400', 'address': ' 경기도 부천시 역곡로490번길 108 고강동 ', 'lat': 126.8219444, 'lng': 37.5275849}"
377,다솜소아청소년과의원, 02-6241-7588, 경기도 과천시 별양상가3로 11 별양동 뉴코아8층8호,126.9918638,37.4263015,"{'name': '다솜소아청소년과의원', 'number': ' 02-6241-7588', 'address': ' 경기도 과천시 별양상가3로 11 별양동 뉴코아8층8호', 'lat': 126.9918638, 'lng': 37.4263015}"
378,다솜소아청소년과의원, 031-365-5722, 경기도 시흥시 배곧4로 99 정왕동 로얄페스타404호,126.7342559,37.3740736,"{'name': '다솜소아청소년과의원', 'number': ' 031-365-5722', 'address': ' 경기도 시흥시 배곧4로 99 정왕동 로얄페스타404호', 'lat': 126.7342559, 'lng': 37.3740736}"
379,다솜연세내과소아청소년과의원, 031-912-3799, 경기도 고양시 일산서구 일현로 123 탄현동 휴엔코아3024호,126.7655422,37.6979788,"{'name': '다솜연세내과소아청소년과의원', 'number': ' 031-912-3799', 'address': ' 경기도 고양시 일산서구 일현로 123 탄현동 휴엔코아3024호', 'lat': 126.7655422, 'lng': 37.6979788}"
380,다솜의원, 031-251-7855, 경기도 수원시 장안구 경수대로 930 조원동4층다솜의원 ,127.0087859,37.3027788,"{'name': '다솜의원', 'number': ' 031-251-7855', 'address': ' 경기도 수원시 장안구 경수대로 930 조원동4층다솜의원 ', 'lat': 127.0087859, 'lng': 37.3027788}"
381,다솜의원, 031-401-7815, 경기도 안산시 상록구 충장로 432 성포동 홈플러스내2층,126.8500776,37.3172991,"{'name': '다솜의원', 'number': ' 031-401-7815', 'address': ' 경기도 안산시 상록구 충장로 432 성포동 홈플러스내2층', 'lat': 126.8500776, 'lng': 37.3172991}"
382,다솜이비인후과 의원, 031-795-7530, 경기도 하남시 미사강변대로 76 풍산동 미사베스트프라자4층401,127.1876656,37.5566478,"{'name': '다솜이비인후과 의원', 'number': ' 031-795-7530', 'address': ' 경기도 하남시 미사강변대로 76 풍산동 미사베스트프라자4층401', 'lat': 127.1876656, 'lng': 37.5566478}"
383,다솜이비인후과의원, 031-337-2324, 경기도 용인시 처인구 백옥대로 1112 김량장동305호 ,127.2091959,37.234731,"{'name': '다솜이비인후과의원', 'number': ' 031-337-2324', 'address': ' 경기도 용인시 처인구 백옥대로 1112 김량장동305호 ', 'lat': 127.2091959, 'lng': 37.234731}"
384,다엘의원, 031-262-7579, 경기도 용인시 수지구 수지로 203 신봉동 E마트지하2층층,127.0832943,37.3197312,"{'name': '다엘의원', 'number': ' 031-262-7579', 'address': ' 경기도 용인시 수지구 수지로 203 신봉동 E마트지하2층층', 'lat': 127.0832943, 'lng': 37.3197312}"
385,다정한내과의원, 031-274-8331, 경기도 용인시 기흥구 한보라1로 6 보라동 제일프라자301호,127.109238,37.2542874,"{'name': '다정한내과의원', 'number': ' 031-274-8331', 'address': ' 경기도 용인시 기흥구 한보라1로 6 보라동 제일프라자301호', 'lat': 127.109238, 'lng': 37.2542874}"
386,닥터장가정의학과의원, 031-464-8777, 경기도 안양시 만안구 충훈로 14 박달동 한양수자인에듀파크206,126.9032976,37.4030367,"{'name': '닥터장가정의학과의원', 'number': ' 031-464-8777', 'address': ' 경기도 안양시 만안구 충훈로 14 박달동 한양수자인에듀파크206', 'lat': 126.9032976, 'lng': 37.4030367}"
387,단샘의원, 031-856-9057, 경기도 양주시 고읍로 10 고읍동 ,127.0787809,37.8020077,"{'name': '단샘의원', 'number': ' 031-856-9057', 'address': ' 경기도 양주시 고읍로 10 고읍동 ', 'lat': 127.0787809, 'lng': 37.8020077}"
388,단원병원, 031-8040-5903, 경기도 안산시 단원구 원포공원1로 20 초지동 ,126.8132738,37.300366,"{'name': '단원병원', 'number': ' 031-8040-5903', 'address': ' 경기도 안산시 단원구 원포공원1로 20 초지동 ', 'lat': 126.8132738, 'lng': 37.300366}"
389,달팽이이비인후과의원, 031-291-8087, 경기도 수원시 권선구 금곡로 100 금곡동 칠보프라자303304호,126.9412749,37.2738674,"{'name': '달팽이이비인후과의원', 'number': ' 031-291-8087', 'address': ' 경기도 수원시 권선구 금곡로 100 금곡동 칠보프라자303304호', 'lat': 126.9412749, 'lng': 37.2738674}"
390,당수성모내과의원, 031-419-0377, 경기도 수원시 권선구 당진로 29-4 당수동 기와프라자301,126.9401861,37.291589,"{'name': '당수성모내과의원', 'number': ' 031-419-0377', 'address': ' 경기도 수원시 권선구 당진로 29-4 당수동 기와프라자301', 'lat': 126.9401861, 'lng': 37.291589}"
391,대디맘소아청소년과의원, 031-984-0645, 경기도 김포시 김포한강2로 232 장기동 한강노블레스303호,126.6607144,37.6456011,"{'name': '대디맘소아청소년과의원', 'number': ' 031-984-0645', 'address': ' 경기도 김포시 김포한강2로 232 장기동 한강노블레스303호', 'lat': 126.6607144, 'lng': 37.6456011}"
392,대아의료재단한도병원, 031-8040-1114, 경기도 안산시 단원구 선부광장로 103 선부동 ,126.8076244,37.3340615,"{'name': '대아의료재단한도병원', 'number': ' 031-8040-1114', 'address': ' 경기도 안산시 단원구 선부광장로 103 선부동 ', 'lat': 126.8076244, 'lng': 37.3340615}"
393,대야미중앙의원, 031-437-7500, 경기도 군포시 대야1로22번길 3 대야미동201호 ,126.9174858,37.3276938,"{'name': '대야미중앙의원', 'number': ' 031-437-7500', 'address': ' 경기도 군포시 대야1로22번길 3 대야미동201호 ', 'lat': 126.9174858, 'lng': 37.3276938}"
394,대진의료재단 분당제생병원, 031-779-0114, 경기도 성남시 분당구 서현로180번길 20 서현동 ,127.121778,37.3882086,"{'name': '대진의료재단 분당제생병원', 'number': ' 031-779-0114', 'address': ' 경기도 성남시 분당구 서현로180번길 20 서현동 ', 'lat': 127.121778, 'lng': 37.3882086}"
395,더건강한내과의원, 031-397-7582, 경기도 군포시 산본로323번길 26-18 산본동 거성빌딩1차6층602호,126.9309735,37.3591597,"{'name': '더건강한내과의원', 'number': ' 031-397-7582', 'address': ' 경기도 군포시 산본로323번길 26-18 산본동 거성빌딩1차6층602호', 'lat': 126.9309735, 'lng': 37.3591597}"
396,더나은내과의원, 031-938-5392, 경기도 고양시 덕양구 백양로 51 화정동 네이버타운604호,126.8332853,37.63028,"{'name': '더나은내과의원', 'number': ' 031-938-5392', 'address': ' 경기도 고양시 덕양구 백양로 51 화정동 네이버타운604호', 'lat': 126.8332853, 'lng': 37.63028}"
397,더웰이비인후과의원, 031-213-3586, 경기도 수원시 영통구 인계로 220 매탄동 ,127.041392,37.2648839,"{'name': '더웰이비인후과의원', 'number': ' 031-213-3586', 'address': ' 경기도 수원시 영통구 인계로 220 매탄동 ', 'lat': 127.041392, 'lng': 37.2648839}"
398,더조은내과의원, 031-905-8575, 경기도 고양시 일산동구 숲속마을로 26 풍동 풍동프라자3층,126.8004469,37.6673251,"{'name': '더조은내과의원', 'number': ' 031-905-8575', 'address': ' 경기도 고양시 일산동구 숲속마을로 26 풍동 풍동프라자3층', 'lat': 126.8004469, 'lng': 37.6673251}"
399,더조은병원, 031-600-2234, 경기도 성남시 수정구 위례서일로 18 창곡동4116층일부층 ,127.1378136,37.4651181,"{'name': '더조은병원', 'number': ' 031-600-2234', 'address': ' 경기도 성남시 수정구 위례서일로 18 창곡동4116층일부층 ', 'lat': 127.1378136, 'lng': 37.4651181}"
400,더좋은소아청소년과의원, 031-897-7588, 경기도 용인시 기흥구 보정로 32 보정동 지젤스포츠클럽,127.1110392,37.3140491,"{'name': '더좋은소아청소년과의원', 'number': ' 031-897-7588', 'address': ' 경기도 용인시 기흥구 보정로 32 보정동 지젤스포츠클럽', 'lat': 127.1110392, 'lng': 37.3140491}"
401,더편안병원, 031-957-2800, 경기도 파주시 청암로17번길 31 목동동38층 ,126.7359063,37.7284902,"{'name': '더편안병원', 'number': ' 031-957-2800', 'address': ' 경기도 파주시 청암로17번길 31 목동동38층 ', 'lat': 126.7359063, 'lng': 37.7284902}"
402,도담소아청소년과의원, 031-338-0714, 경기도 용인시 처인구 명지로40번길 13 역북동3층302호 ,127.1869071,37.2323418,"{'name': '도담소아청소년과의원', 'number': ' 031-338-0714', 'address': ' 경기도 용인시 처인구 명지로40번길 13 역북동3층302호 ', 'lat': 127.1869071, 'lng': 37.2323418}"
403,도당삼성의원, 032-678-8119, 경기도 부천시 삼작로 287 도당동2층 ,126.7934083,37.5203048,"{'name': '도당삼성의원', 'number': ' 032-678-8119', 'address': ' 경기도 부천시 삼작로 287 도당동2층 ', 'lat': 126.7934083, 'lng': 37.5203048}"
404,도도스이비인후과의원, 031-431-6336, 경기도 시흥시 배곧3로 96 정왕동4층407호일부408호 ,126.7302942,37.3695612,"{'name': '도도스이비인후과의원', 'number': ' 031-431-6336', 'address': ' 경기도 시흥시 배곧3로 96 정왕동4층407호일부408호 ', 'lat': 126.7302942, 'lng': 37.3695612}"
405,도래울아이랑소아청소년과의원, 031-966-2220, 경기도 고양시 덕양구 도래울로 52 도내동 센터프라자3층301호,126.8694776,37.6303744,"{'name': '도래울아이랑소아청소년과의원', 'number': ' 031-966-2220', 'address': ' 경기도 고양시 덕양구 도래울로 52 도내동 센터프라자3층301호', 'lat': 126.8694776, 'lng': 37.6303744}"
406,독일키즈의원, 031-753-0509, 경기도 성남시 수정구 시민로 227 태평동1층 ,127.1405361,37.4480751,"{'name': '독일키즈의원', 'number': ' 031-753-0509', 'address': ' 경기도 성남시 수정구 시민로 227 태평동1층 ', 'lat': 127.1405361, 'lng': 37.4480751}"
407,동국대학교일산불교병원, 031-961-7000, 경기도 고양시 일산동구 동국로 27 식사동 동국대학교일산병원,126.8064233,37.6763969,"{'name': '동국대학교일산불교병원', 'number': ' 031-961-7000', 'address': ' 경기도 고양시 일산동구 동국로 27 식사동 동국대학교일산병원', 'lat': 126.8064233, 'lng': 37.6763969}"
408,동문연세소아과의원, 031-812-3651, 경기도 고양시 덕양구 화정로 47 화정동 동원텔3층303호,126.8314292,37.635166,"{'name': '동문연세소아과의원', 'number': ' 031-812-3651', 'address': ' 경기도 고양시 덕양구 화정로 47 화정동 동원텔3층303호', 'lat': 126.8314292, 'lng': 37.635166}"
409,동백서울소아과의원, 031-275-5459, 경기도 용인시 기흥구 동백7로 73 동백동 경안빌딩3층301호,127.1596222,37.2820285,"{'name': '동백서울소아과의원', 'number': ' 031-275-5459', 'address': ' 경기도 용인시 기흥구 동백7로 73 동백동 경안빌딩3층301호', 'lat': 127.1596222, 'lng': 37.2820285}"
410,동백제일의원, 031-286-9886, 경기도 용인시 기흥구 언동로217번길 45-1 중동 ,127.1487802,37.276917,"{'name': '동백제일의원', 'number': ' 031-286-9886', 'address': ' 경기도 용인시 기흥구 언동로217번길 45-1 중동 ', 'lat': 127.1487802, 'lng': 37.276917}"
411,동산연세소아청소년과의원, 02-381-7534, 경기도 고양시 덕양구 동산2로 1 동산동203호 ,126.8861262,37.6448301,"{'name': '동산연세소아청소년과의원', 'number': ' 02-381-7534', 'address': ' 경기도 고양시 덕양구 동산2로 1 동산동203호 ', 'lat': 126.8861262, 'lng': 37.6448301}"
412,동아가정의원, 031-743-2194, 경기도 성남시 중원구 박석로33번길 13 상대원동2층 ,127.164331,37.4358496,"{'name': '동아가정의원', 'number': ' 031-743-2194', 'address': ' 경기도 성남시 중원구 박석로33번길 13 상대원동2층 ', 'lat': 127.164331, 'lng': 37.4358496}"
413,동안산병원, 031-410-1116, 경기도 안산시 상록구 월피로 88 월피동 ,126.8529776,37.3358857,"{'name': '동안산병원', 'number': ' 031-410-1116', 'address': ' 경기도 안산시 상록구 월피로 88 월피동 ', 'lat': 126.8529776, 'lng': 37.3358857}"
414,동원산부인과의원, 031-921-1515, 경기도 고양시 일산동구 일산로 439 정발산동 외1필지지1층일부,126.778038,37.6728911,"{'name': '동원산부인과의원', 'number': ' 031-921-1515', 'address': ' 경기도 고양시 일산동구 일산로 439 정발산동 외1필지지1층일부', 'lat': 126.778038, 'lng': 37.6728911}"
415,동천연세소아청소년과의원, 031-276-3188, 경기도 용인시 수지구 수풍로131번길 2 동천동 에덴파크303호,127.093366,37.3356612,"{'name': '동천연세소아청소년과의원', 'number': ' 031-276-3188', 'address': ' 경기도 용인시 수지구 수풍로131번길 2 동천동 에덴파크303호', 'lat': 127.093366, 'lng': 37.3356612}"
416,동천이안소아청소년과의원, 031-896-0777, 경기도 용인시 수지구 손곡로 100 동천동 훼미리프라자303호,127.0916402,37.3363735,"{'name': '동천이안소아청소년과의원', 'number': ' 031-896-0777', 'address': ' 경기도 용인시 수지구 손곡로 100 동천동 훼미리프라자303호', 'lat': 127.0916402, 'lng': 37.3363735}"
417,동탄굿모닝소아청소년과의원, 031-372-0836, 경기도 화성시 동탄대로시범길 148-54 청계동 헤븐리원3층301호,127.1137164,37.2005425,"{'name': '동탄굿모닝소아청소년과의원', 'number': ' 031-372-0836', 'address': ' 경기도 화성시 동탄대로시범길 148-54 청계동 헤븐리원3층301호', 'lat': 127.1137164, 'lng': 37.2005425}"
418,동탄꾸러기병원, 031-374-0700, 경기도 화성시 동탄순환대로 702 영천동 성산타워57층A동,127.1109634,37.2073804,"{'name': '동탄꾸러기병원', 'number': ' 031-374-0700', 'address': ' 경기도 화성시 동탄순환대로 702 영천동 성산타워57층A동', 'lat': 127.1109634, 'lng': 37.2073804}"
419,동탄메디삼육오의원, 031-377-7264, 경기도 화성시 동탄대로 489 오산동307호 ,127.0982637,37.1973592,"{'name': '동탄메디삼육오의원', 'number': ' 031-377-7264', 'address': ' 경기도 화성시 동탄대로 489 오산동307호 ', 'lat': 127.0982637, 'lng': 37.1973592}"
420,동탄미소소아청소년과의원, 031-375-9393, 경기도 화성시 동탄대로시범길 142 청계동 센텀프라자403호,127.1133874,37.1999195,"{'name': '동탄미소소아청소년과의원', 'number': ' 031-375-9393', 'address': ' 경기도 화성시 동탄대로시범길 142 청계동 센텀프라자403호', 'lat': 127.1133874, 'lng': 37.1999195}"
421,동탄삼성의원, 031-8077-2338, 경기도 화성시 동탄신리천로 278 오산동303 304호,127.1088524,37.1833723,"{'name': '동탄삼성의원', 'number': ' 031-8077-2338', 'address': ' 경기도 화성시 동탄신리천로 278 오산동303 304호', 'lat': 127.1088524, 'lng': 37.1833723}"
422,동탄시티병원, 031-8015-3333, 경기도 화성시 동탄지성로 113 능동 ,127.0626243,37.2084782,"{'name': '동탄시티병원', 'number': ' 031-8015-3333', 'address': ' 경기도 화성시 동탄지성로 113 능동 ', 'lat': 127.0626243, 'lng': 37.2084782}"
423,동탄연세소아청소년과의원, 031-613-6080, 경기도 화성시 동탄중앙로 200 반송동 메타폴리스B동3층3121,127.0689482,37.2027776,"{'name': '동탄연세소아청소년과의원', 'number': ' 031-613-6080', 'address': ' 경기도 화성시 동탄중앙로 200 반송동 메타폴리스B동3층3121', 'lat': 127.0689482, 'lng': 37.2027776}"
424,동탄연세의원, 031-898-9595, 경기도 화성시 동탄원천로 382-46 반월동 ,127.0584085,37.2230229,"{'name': '동탄연세의원', 'number': ' 031-898-9595', 'address': ' 경기도 화성시 동탄원천로 382-46 반월동 ', 'lat': 127.0584085, 'lng': 37.2230229}"
425,동탄연세이비인후과의원, 031-8003-7582, 경기도 화성시 동탄지성로 141 능동 아크리아빌딩403호,127.0599241,37.2094358,"{'name': '동탄연세이비인후과의원', 'number': ' 031-8003-7582', 'address': ' 경기도 화성시 동탄지성로 141 능동 아크리아빌딩403호', 'lat': 127.0599241, 'lng': 37.2094358}"
426,동탄키즈웰소아청소년과의원, 031-376-6619, 경기도 화성시 동탄대로 198 산척동드림타워4층406호 ,127.1073075,37.1721233,"{'name': '동탄키즈웰소아청소년과의원', 'number': ' 031-376-6619', 'address': ' 경기도 화성시 동탄대로 198 산척동드림타워4층406호 ', 'lat': 127.1073075, 'lng': 37.1721233}"
427,두리 이비인후과의원, 031-714-5050, 경기도 성남시 분당구 성남대로 170 금곡동 한국프라자603호,127.1095042,37.3511883,"{'name': '두리 이비인후과의원', 'number': ' 031-714-5050', 'address': ' 경기도 성남시 분당구 성남대로 170 금곡동 한국프라자603호', 'lat': 127.1095042, 'lng': 37.3511883}"
428,두리소아과의원, 031-932-8222, 경기도 고양시 일산동구 강촌로 157 마두동 서울코아305호,126.7909696,37.6536624,"{'name': '두리소아과의원', 'number': ' 031-932-8222', 'address': ' 경기도 고양시 일산동구 강촌로 157 마두동 서울코아305호', 'lat': 126.7909696, 'lng': 37.6536624}"
429,두리이비인후과의원, 031-215-5075, 경기도 용인시 기흥구 흥덕중앙로 59 영덕동 용인흥덕노블레스흥덕노블레스,127.0736864,37.2764824,"{'name': '두리이비인후과의원', 'number': ' 031-215-5075', 'address': ' 경기도 용인시 기흥구 흥덕중앙로 59 영덕동 용인흥덕노블레스흥덕노블레스', 'lat': 127.0736864, 'lng': 37.2764824}"
430,두리이비인후과의원, 031-334-2004, 경기도 용인시 처인구 명지로60번길 8-10 역북동광장프라자3층2호 ,127.1878833,37.2316,"{'name': '두리이비인후과의원', 'number': ' 031-334-2004', 'address': ' 경기도 용인시 처인구 명지로60번길 8-10 역북동광장프라자3층2호 ', 'lat': 127.1878833, 'lng': 37.2316}"
431,두리이비인후과의원, 031-378-2204, 경기도 오산시 경기대로 155 원동 신한프라자A302,127.0731124,37.1386489,"{'name': '두리이비인후과의원', 'number': ' 031-378-2204', 'address': ' 경기도 오산시 경기대로 155 원동 신한프라자A302', 'lat': 127.0731124, 'lng': 37.1386489}"
432,두리이비인후과의원, 031-397-7577, 경기도 군포시 산본천로 43-6 산본동 한숲스포츠센터2층,126.9281797,37.3607373,"{'name': '두리이비인후과의원', 'number': ' 031-397-7577', 'address': ' 경기도 군포시 산본천로 43-6 산본동 한숲스포츠센터2층', 'lat': 126.9281797, 'lng': 37.3607373}"
433,두리이비인후과의원, 031-566-5075, 경기도 구리시 경춘로 249 인창동 동원빌딩407,127.1427365,37.6021201,"{'name': '두리이비인후과의원', 'number': ' 031-566-5075', 'address': ' 경기도 구리시 경춘로 249 인창동 동원빌딩407', 'lat': 127.1427365, 'lng': 37.6021201}"
434,두리이비인후과의원, 031-722-3777, 경기도 성남시 수정구 위례동로 141 창곡동3층 ,127.1500709,37.4726432,"{'name': '두리이비인후과의원', 'number': ' 031-722-3777', 'address': ' 경기도 성남시 수정구 위례동로 141 창곡동3층 ', 'lat': 127.1500709, 'lng': 37.4726432}"
435,두리이비인후과의원, 031-946-2115, 경기도 파주시 미래로 371 동패동 현대프라자1001,126.7458695,37.7110565,"{'name': '두리이비인후과의원', 'number': ' 031-946-2115', 'address': ' 경기도 파주시 미래로 371 동패동 현대프라자1001', 'lat': 126.7458695, 'lng': 37.7110565}"
436,두리이비인후과의원수원점, 031-247-2275, 경기도 수원시 장안구 만석로19번길 29 천천동 부강프라자502,126.9831082,37.2966155,"{'name': '두리이비인후과의원수원점', 'number': ' 031-247-2275', 'address': ' 경기도 수원시 장안구 만석로19번길 29 천천동 부강프라자502', 'lat': 126.9831082, 'lng': 37.2966155}"
437,두윤가정의원, 032-214-4809, 경기도 부천시 신상로 54 상동 목련마을2,126.7476495,37.4938932,"{'name': '두윤가정의원', 'number': ' 032-214-4809', 'address': ' 경기도 부천시 신상로 54 상동 목련마을2', 'lat': 126.7476495, 'lng': 37.4938932}"
438,두진웅가정의학과의원, 031-757-7582, 경기도 성남시 수정구 남문로 106 태평동2층 ,127.1382833,37.4471644,"{'name': '두진웅가정의학과의원', 'number': ' 031-757-7582', 'address': ' 경기도 성남시 수정구 남문로 106 태평동2층 ', 'lat': 127.1382833, 'lng': 37.4471644}"
439,둘이이비인후과의원, 031-227-0191, 경기도 화성시 봉담읍 동화길 93-2 제이스프라자401호 ,126.9591611,37.2163415,"{'name': '둘이이비인후과의원', 'number': ' 031-227-0191', 'address': ' 경기도 화성시 봉담읍 동화길 93-2 제이스프라자401호 ', 'lat': 126.9591611, 'lng': 37.2163415}"
440,드림모아의원, 031-222-7589, 경기도 화성시 봉담읍 효행로 278 이마트 ,126.9720972,37.2225045,"{'name': '드림모아의원', 'number': ' 031-222-7589', 'address': ' 경기도 화성시 봉담읍 효행로 278 이마트 ', 'lat': 126.9720972, 'lng': 37.2225045}"
441,드림성모이비인후과의원, 032-343-9724, 경기도 부천시 범안로 117 범박동 현대리치모어412호,126.8096197,37.471211,"{'name': '드림성모이비인후과의원', 'number': ' 032-343-9724', 'address': ' 경기도 부천시 범안로 117 범박동 현대리치모어412호', 'lat': 126.8096197, 'lng': 37.471211}"
442,드림소아청소년과의원, 031-215-5275, 경기도 수원시 팔달구 중부대로 245 우만동 용신빌딩3층,127.0428534,37.2753894,"{'name': '드림소아청소년과의원', 'number': ' 031-215-5275', 'address': ' 경기도 수원시 팔달구 중부대로 245 우만동 용신빌딩3층', 'lat': 127.0428534, 'lng': 37.2753894}"
443,드림소아청소년과의원, 031-353-7496, 경기도 화성시 향남읍 상신하길로298번길 7-1 3층305호 ,126.9102809,37.114991,"{'name': '드림소아청소년과의원', 'number': ' 031-353-7496', 'address': ' 경기도 화성시 향남읍 상신하길로298번길 7-1 3층305호 ', 'lat': 126.9102809, 'lng': 37.114991}"
444,드림소아청소년과의원, 031-401-9975, 경기도 안산시 단원구 원포공원1로 46 초지동 이마트1층,126.8128549,37.3031651,"{'name': '드림소아청소년과의원', 'number': ' 031-401-9975', 'address': ' 경기도 안산시 단원구 원포공원1로 46 초지동 이마트1층', 'lat': 126.8128549, 'lng': 37.3031651}"
445,드림수소아청소년과의원, 031-352-9595, 경기도 화성시 동탄반석로 120 반송동 제일프라자506507호,127.0716805,37.1996596,"{'name': '드림수소아청소년과의원', 'number': ' 031-352-9595', 'address': ' 경기도 화성시 동탄반석로 120 반송동 제일프라자506507호', 'lat': 127.0716805, 'lng': 37.1996596}"
446,드림연합소아청소년과의원, 031-399-7588, 경기도 군포시 산본로323번길 15 산본동 동산빌딩401,126.9322461,37.3586636,"{'name': '드림연합소아청소년과의원', 'number': ' 031-399-7588', 'address': ' 경기도 군포시 산본로323번길 15 산본동 동산빌딩401', 'lat': 126.9322461, 'lng': 37.3586636}"
447,드림의원, 031-341-1033, 경기도 안양시 만안구 덕천로 117 안양동 삼성프라자301호,126.9339254,37.3917059,"{'name': '드림의원', 'number': ' 031-341-1033', 'address': ' 경기도 안양시 만안구 덕천로 117 안양동 삼성프라자301호', 'lat': 126.9339254, 'lng': 37.3917059}"
448,드림이비인후과의원, 031-923-2277, 경기도 고양시 일산서구 가좌1로 57 가좌동201호 ,126.718697,37.6871746,"{'name': '드림이비인후과의원', 'number': ' 031-923-2277', 'address': ' 경기도 고양시 일산서구 가좌1로 57 가좌동201호 ', 'lat': 126.718697, 'lng': 37.6871746}"
449,드림키즈소아청소년과의원, 031-571-1365, 경기도 구리시 갈매중앙로 83 갈매동 아름터프라자403404호,127.1172502,37.6320617,"{'name': '드림키즈소아청소년과의원', 'number': ' 031-571-1365', 'address': ' 경기도 구리시 갈매중앙로 83 갈매동 아름터프라자403404호', 'lat': 127.1172502, 'lng': 37.6320617}"
450,드림키즈소아청소년과의원, 031-638-4090, 경기도 이천시 중리천로 76 중리동 라온펠리스3층,127.4457492,37.278464,"{'name': '드림키즈소아청소년과의원', 'number': ' 031-638-4090', 'address': ' 경기도 이천시 중리천로 76 중리동 라온펠리스3층', 'lat': 127.4457492, 'lng': 37.278464}"
451,뜨는소아청소년과의원, 031-837-7530, 경기도 의정부시 의정로 44 의정부동 석천빌딩3층,127.0353049,37.7366634,"{'name': '뜨는소아청소년과의원', 'number': ' 031-837-7530', 'address': ' 경기도 의정부시 의정로 44 의정부동 석천빌딩3층', 'lat': 127.0353049, 'lng': 37.7366634}"
452,라라소아청소년과의원, 031-723-0055, 경기도 성남시 수정구 위례동로 141 창곡동5층 ,127.1500709,37.4726432,"{'name': '라라소아청소년과의원', 'number': ' 031-723-0055', 'address': ' 경기도 성남시 수정구 위례동로 141 창곡동5층 ', 'lat': 127.1500709, 'lng': 37.4726432}"
453,라온소아청소년과의원, 070-7733-5056, 경기도 시흥시 배곧4로 103 정왕동대경프라자5층503호 ,126.734586,37.3738892,"{'name': '라온소아청소년과의원', 'number': ' 070-7733-5056', 'address': ' 경기도 시흥시 배곧4로 103 정왕동대경프라자5층503호 ', 'lat': 126.734586, 'lng': 37.3738892}"
454,라이온소아청소년과의원, 031-987-7973, 경기도 김포시 태장로 808 장기동 송호프라자4층403호,126.6777941,37.6375548,"{'name': '라이온소아청소년과의원', 'number': ' 031-987-7973', 'address': ' 경기도 김포시 태장로 808 장기동 송호프라자4층403호', 'lat': 126.6777941, 'lng': 37.6375548}"
455,라임의원, 031-741-4777, 경기도 성남시 중원구 산성대로 522 은행동2층 ,127.1640726,37.457293,"{'name': '라임의원', 'number': ' 031-741-4777', 'address': ' 경기도 성남시 중원구 산성대로 522 은행동2층 ', 'lat': 127.1640726, 'lng': 37.457293}"
456,라파이비인후과의원, 031-296-4433, 경기도 수원시 권선구 금호로 231 구운동 해주빌딩3층,126.9752076,37.2756752,"{'name': '라파이비인후과의원', 'number': ' 031-296-4433', 'address': ' 경기도 수원시 권선구 금호로 231 구운동 해주빌딩3층', 'lat': 126.9752076, 'lng': 37.2756752}"
457,라파이비인후과의원, 031-386-0066, 경기도 안양시 동안구 달안로 61 비산동 한양스포츠센타214호,126.9488835,37.3968457,"{'name': '라파이비인후과의원', 'number': ' 031-386-0066', 'address': ' 경기도 안양시 동안구 달안로 61 비산동 한양스포츠센타214호', 'lat': 126.9488835, 'lng': 37.3968457}"
458,라파이비인후과의원, 031-707-8184, 경기도 성남시 분당구 분당로263번길 35 서현동 서현굿모닝프라자,127.1397912,37.3717545,"{'name': '라파이비인후과의원', 'number': ' 031-707-8184', 'address': ' 경기도 성남시 분당구 분당로263번길 35 서현동 서현굿모닝프라자', 'lat': 127.1397912, 'lng': 37.3717545}"
459,레인보우소아청소년과의원, 031-278-5667, 경기도 수원시 권선구 매곡로 88 금곡동 민경빌딩2층,126.9557778,37.2716398,"{'name': '레인보우소아청소년과의원', 'number': ' 031-278-5667', 'address': ' 경기도 수원시 권선구 매곡로 88 금곡동 민경빌딩2층', 'lat': 126.9557778, 'lng': 37.2716398}"
460,류동균내과의원, 031-468-7786, 경기도 안양시 만안구 장내로 86 안양동 ,126.9182696,37.3950565,"{'name': '류동균내과의원', 'number': ' 031-468-7786', 'address': ' 경기도 안양시 만안구 장내로 86 안양동 ', 'lat': 126.9182696, 'lng': 37.3950565}"
461,리다이비인후과의원, 02-381-2588, 경기도 고양시 덕양구 권율대로 885 신원동 태웅PLAZA3층305호,126.8890796,37.6632786,"{'name': '리다이비인후과의원', 'number': ' 02-381-2588', 'address': ' 경기도 고양시 덕양구 권율대로 885 신원동 태웅PLAZA3층305호', 'lat': 126.8890796, 'lng': 37.6632786}"
462,리더스의원, 031-996-7582, 경기도 김포시 중봉로 14 감정동 홈플러스김포점2층,126.6986108,37.6238473,"{'name': '리더스의원', 'number': ' 031-996-7582', 'address': ' 경기도 김포시 중봉로 14 감정동 홈플러스김포점2층', 'lat': 126.6986108, 'lng': 37.6238473}"
463,리앤김소아청소년과의원, 031-366-1003, 경기도 화성시 향남읍 상신하길로298번길 7-21 kt시네마1동5층511 512호,126.9124754,37.1151722,"{'name': '리앤김소아청소년과의원', 'number': ' 031-366-1003', 'address': ' 경기도 화성시 향남읍 상신하길로298번길 7-21 kt시네마1동5층511 512호', 'lat': 126.9124754, 'lng': 37.1151722}"
464,리체가정의학과의원, 031-711-1884, 경기도 성남시 분당구 정자일로 121 정자동 분당더샵스타파크상가동2층G18호,127.1051555,37.3613895,"{'name': '리체가정의학과의원', 'number': ' 031-711-1884', 'address': ' 경기도 성남시 분당구 정자일로 121 정자동 분당더샵스타파크상가동2층G18호', 'lat': 127.1051555, 'lng': 37.3613895}"
