,name,number,address,lat,lng
39,미성의료재단 아름다운병원, 033-430-9999, 강원도 홍천군 홍천읍 홍천로 342-10  ,127.8831925,37.6881194
42,밝은미래의원, 033-481-2575, 강원도 양구군 양구읍 사명길 32  밝은미래의원,127.9884012,38.1037079
45,부부소아청소년과의원, 033-746-5988, 강원도 원주시 문막읍 왕건로 48  ,127.8293112,37.3238795
50,성가의원, 033-372-4888, 강원도 영월군 영월읍 중앙로 33  번지,128.4674216,37.1837072
53,성요셉의원, 033-458-6115, 강원도 철원군 서면 와수1로 12  ,127.436973,38.2379355
54,성윤업내과의원, 033-374-0871, 강원도 영월군 영월읍 중앙1로 32  번지,128.465951,37.1839023
86,우리연합의원, 033-463-5251, 강원도 인제군 기린면 기린로 43-1  ,128.3179864,37.9561646
87,원주연세의원, 033-766-7881, 강원도 원주시 흥업면 남원로 57  원주연세의원,127.9192109,37.3014171
88,유소아청소년과의원, 033-345-5332, 강원도 횡성군 횡성읍 태기로 25  ,127.9862644,37.4911413
96,이앤신 소아청소년과의원, 033-263-2255, 강원도 춘천시 동내면 춘천순환로 58  메디피아건물 301-2호,127.7503301,37.8551213
103,인제고려병원, 033-461-0088, 강원도 인제군 인제읍 비봉로 19  상동리256-2번지,128.1735808,38.0677805
105,정선군립병원, 033-592-3121, 강원도 정선군 사북읍 지장천로 727  ,128.8261822,37.2257003
116,키즈메디소아청소년과의원, 033-433-9933, 강원도 홍천군 홍천읍 홍천로 326  키즈메디소아청소년과의원,127.8816456,37.6880778
120,튼튼의원, 033-482-8275, 강원도 양구군 양구읍 사명길 50-10  튼튼의원,127.9887121,38.1043564
132,한사랑내과의원, 033-481-3566, 강원도 양구군 양구읍 사명길 123  중리 31-1,127.9883258,38.1078248
140,호산외과의원, 033-432-9387, 강원도 홍천군 남면 양덕원2길 19  양덕원1리194-7,127.7686344,37.6168203
142,화천내과의원, 033-442-8001, 강원도 화천군 화천읍 중앙로 19-1  ,127.7064708,38.1042722
143,화천연세의원, 033-441-3800, 강원도 화천군 화천읍 중앙로2길 41-8  소고빌딩 2층 화천연세의원,127.7042095,38.1030337
146,홍인의료소비자생활협동조합&#41;우리현대의원, 031-338-8012, 경기도 용인시 처인구 양지면 양지로 137  ,127.2836688,37.2347281
171,가남현대의원, 031-884-8275, 경기도 여주시 가남읍 태평로 56  태평리 172,127.5439519,37.2048911
181,가평삼성의원, 031-585-3658, 경기도 가평군 가평읍 석봉로 198  ,127.5100942,37.8326551
235,곤지암내과의원, 031-769-8275, 경기도 광주시 곤지암읍 곤지암로 54  곤지암리 437-1,127.3408535,37.34986
249,광탄현대병원, 031-935-5678, 경기도 파주시 광탄면 큰여울길 20-16  ,126.8496889,37.7792667
256,구인재활의학과의원, 031-882-7636, 경기도 여주시 대신면 여양로 1421  율촌리 269-7,127.5901186,37.3753662
279,권오윤내과의원, 031-571-8745, 경기도 남양주시 퇴계원면 퇴계원로46번길 1  ,127.1419522,37.6505044
374,나래의원, 031-764-7525, 경기도 광주시 곤지암읍 평촌길 36  삼리 134-9,127.3257205,37.3564626
385,남양주 한양병원, 031-510-0114, 경기도 남양주시 오남읍 양지로 47-55  ,127.2043933,37.6823474
537,마석이비인후과의원, 031-595-3222, 경기도 남양주시 화도읍 마석중앙로 68  ,127.3072828,37.6521439
581,모현누리소아청소년과의원, 031-322-5597, 경기도 용인시 처인구 모현면 백옥대로 2385-1  백옥대로 2385-1,127.249197,37.3366439
602,미래산부인과의원, 031-763-3552, 경기도 광주시 곤지암읍 평촌길 39  미래산부인과의원,127.3262864,37.355786
653,박소아과의원, 031-642-8644, 경기도 이천시 장호원읍 장감로87번길 4  장호원리 41-3,127.6322398,37.1178363
674,발안우리들의원, 031-366-1980, 경기도 화성시 향남읍 발안남로55번길 27  ,126.9049585,37.1299749
689,범세이비인후과의원, 031-322-1219, 경기도 용인시 처인구 포곡읍 포곡로 109  포곡읍 둔전리 152-9,127.2175448,37.2695836
709,본소아청소년과의원, 031-8059-7636, 경기도 화성시 향남읍 하길로 70 부영10단지 상가동 106-7호 (오색마을 사랑으로부영10단지아파트),126.9209306,37.1124041
726,봉담성모의원, 031-227-7888, 경기도 화성시 봉담읍 진등1길 65  수영리 648-15,126.9497737,37.2213915
728,봉봉소아청소년과의원, 031-683-0325, 경기도 평택시 청북읍 안청로 332  옥길리 1162-1 한남프라자 302호,126.915923,37.0175127
752,사강정형외과의원, 031-357-7588, 경기도 화성시 송산면 사강로 212  ,126.7394907,37.2131146
835,새희망마취통증의학과의원, 031-581-7200, 경기도 가평군 가평읍 가화로 113-1  ,127.513332,37.8298291
857,서울명의원, 031-353-8255, 경기도 화성시 향남읍 상신하길로 66  ,126.8966893,37.1004943
870,서울삼성의원, 031-338-7582, 경기도 용인시 처인구 양지면 양지로 140  양지면 양지리 573-5,127.2837899,37.2343375
888,서울수의원, 031-651-0177, 경기도 평택시 팽성읍 부용로 27  ,127.0587591,36.9632079
906,서울연합의원, 031-684-7582, 경기도 평택시 안중읍 안현로서6길 32  현화리 47번지 301호,126.9259622,36.9849065
912,서울의원, 031-528-2297, 경기도 남양주시 진접읍 광릉내로 108  팔야리 758-4,127.2058916,37.7463952
959,성모우리내과의원, 031-797-0200, 경기도 광주시 퇴촌면 광동로 33  성모우리내과,127.3064462,37.4707395
993,세종의원, 031-222-3061, 경기도 화성시 봉담읍 와우안길 52  와우리 76-10 세종의원,126.9762044,37.2162043
1064,승리외과의원, 031-982-3981, 경기도 김포시 양촌읍 양곡1로 56  양곡리419-11,126.6234362,37.6555398
1078,신미주우리들의원, 031-323-1140, 경기도 용인시 처인구 이동면 백옥대로621번길 3  백옥대로 621번길 3 202호,127.2066665,37.192175
1092,씨엘산부인과의원, 031-353-5969, 경기도 화성시 향남읍 삼천병마로 230  ,126.9113139,37.1334695
1153,안상용내과의원, 031-574-3998, 경기도 남양주시 진건읍 진건오남로 69  안상용내과의원,127.1783015,37.6568949
1156,안성의료복지사회적협동조합서안성의원, 031-651-6121, 경기도 안성시 공도읍 승두길 40  안성의료복지사회적협동조합 서안성의원,127.1711937,36.9985755
1172,양수삼성요양병원, 031-772-0990, 경기도 양평군 양서면 양수로 149-2  양수삼성요양병원,127.3194221,37.5442218
1178,양지내과의원, 031-336-7579, 경기도 용인시 처인구 양지면 양지로 131  양지내과의원,127.2829173,37.2348126
1180,양평경희통합의원한의원, 031-771-7582, 경기도 양평군 옥천면 북부길9번길 13 ,127.4602396,37.5209703
1220,연세능골의원, 031-766-7889, 경기도 광주시 오포읍 오포로 118  능평리 152-13,127.17929,37.3437718
1240,연세봄소아청소년과의원, 031-711-3833, 경기도 광주시 오포읍 신현로 100-3  연세봄소아청소년과의원,127.1577418,37.3597502
1279,연세의원, 031-882-6173, 경기도 여주시 가남읍 태평로 23  태평로 23,127.5464761,37.2027817
1282,연세이비인후과의원, 031-572-7582, 경기도 남양주시 진접읍 장현로87번길 1  동아빌딩3층 연세이비인후과의원,127.1819341,37.7183632
1289,연세제일의원, 031-683-2580, 경기도 평택시 안중읍 안중로131번길 5  안중리 292-72번지,126.9309342,36.989118
1300,연세패밀리의원, 031-656-2377, 경기도 평택시 평택5로 30 (합정동) 연세패밀리의원,127.1117516,36.9884238
1303,연세푸른의원, 031-543-7688, 경기도 포천시 소흘읍 솔모루로 39   시온빌딩 2층,127.1437425,37.8260156
1334,예담의원, 031-764-5588, 경기도 광주시 퇴촌면 광동로 49  ,127.3082704,37.4706859
1343,오남이비인후과의원, 031-574-7111, 경기도 남양주시 오남읍 진건오남로 512  오남리 477-1,127.210148,37.6795969
1358,오포의원, 031-766-7582, 경기도 광주시 오포읍 오포로 868  ,127.231945,37.3677417
1392,우리들의원, 031-585-2533, 경기도 가평군 설악면 신천중앙로88번길 1  신천리 120-1,127.493773,37.6768947
1406,우리소아청소년과의원, 031-797-5976, 경기도 광주시 곤지암읍 평촌길 38-14  우리소아청소년과 의원 ,127.325456,37.3566062
1463,유성소아청소년과의원, 031-582-2519, 경기도 가평군 가평읍 연인길 2  읍내리 476-4번지,127.5140265,37.8285865
1494,의료법인 은혜와감사의료재단 화성중앙종합병원, 031-371-8057, 경기도 화성시 향남읍 발안로 5  ,126.9108361,37.1312957
1538,이승균이비인후과의원, 031-681-3347, 경기도 평택시 안중읍 안중로 130-2  안중리 292-17,126.9309059,36.9886456
1564,이젠드림가정의학과의원, 031-987-7975, 경기도 김포시 양촌읍 황금로109번길 27  이젠드림가정의학과검진센터,126.6222351,37.6175279
1584,이혜용소아청소년과의원, 031-543-7720, 경기도 포천시 소흘읍 솔모루로 95  ,127.147775,37.8298083
1598,일동연세의원, 031-532-0396, 경기도 포천시 일동면 화동로 1066  ,127.3184534,37.9583607
1613,자애의원, 031-674-1198, 경기도 안성시 일죽면 금일로 465-10  송천리 15-32,127.4779614,37.0934433
1665,제일메디플러스의원, 031-322-7582, 경기도 용인시 처인구 포곡읍 포곡로 113  제일메디플러스 3층,127.2178962,37.2699233
1671,제일의원, 031-959-6004, 경기도 파주시 적성면 청송로 1023  마지리46-8,126.9186774,37.9546165
1708,중문의원, 031-592-6685, 경기도 남양주시 수동면 비룡로 720-1  운수리 103-3,127.3269676,37.7031497
1728,진소아청소년과의원, 031-879-2475, 경기도 양주시 백석읍 호명로 57  ,126.9928689,37.7882401
1758,청심국제병원, 031-589-4300, 경기도 가평군 설악면 미사리로 267-177  송산리 460,127.5213618,37.6911585
1771,최소아청소년과의원, 031-511-0804, 경기도 남양주시 화도읍 마석중앙로 78  마석우리 271-4,127.3082749,37.6519317
1837,퇴촌중앙의원, 031-766-6211, 경기도 광주시 퇴촌면 광동로 73-8  퇴촌중앙의원,127.3108933,37.4708616
1843,튼튼소아청소년과의원, 031-576-7575, 경기도 남양주시 와부읍 덕소로97번길 9  덕소리 476-3 일신프라자 2층,127.2132828,37.5861602
1863,포승21세기의원, 031-682-7552, 경기도 평택시 포승읍 서동대로 1124  내기리 1-7,126.8798816,36.9806352
1889,플러스맘소아청소년과의원, 031-574-8255, 경기도 남양주시 진접읍 금강로 1447  장현리 216-1 진접홈플러스 2층,127.1885526,37.7217588
1898,하나로내과의원, 031-682-8217, 경기도 평택시 안중읍 안현로서6길 44  현화리 71-4,126.9247513,36.9847994
1909,하나연합의원, 031-882-2277, 경기도 여주시 가남읍 태평로 30  하나연합의원,127.5462272,37.2033224
1924,하북한사랑의원, 031-611-7933, 경기도 평택시 진위면 진위서로 2  하북리 152-10외 3필지,127.0639194,37.1092476
1940,한마음내과의원, 031-769-7897, 경기도 광주시 곤지암읍 평촌길 35-7  ,127.3262446,37.3562115
1956,한사랑가정의원, 031-989-7542, 경기도 김포시 양촌읍 양곡로 537  양곡리 414-3,126.6237319,37.6548222
1964,한사랑의원, 031-572-8335, 경기도 남양주시 퇴계원면 경춘북로558번길 2  ,127.1455384,37.6479469
1978,한양성모의원, 031-882-2200, 경기도 여주시 가남읍 태평로 25  태평4리 141-13,127.5461085,37.2030226
1984,한일의원, 031-333-2306, 경기도 용인시 처인구 백암면 백암로 212  백암면백암리365번지,127.3744824,37.1654585
2018,행복한가정의학과의원, 031-767-8677, 경기도 광주시 초월읍 현산로 90  도평리212-3,127.2916023,37.3955242
2045,현대병원, 031-574-9119, 경기도 남양주시 진접읍 봉현로 21  ,127.1798467,37.7154219
2111,거창적십자병원, 055-944-3251, 경상남도 거창군 거창읍 중앙로 91  거창적십자병원,127.9087378,35.6867599
2119,고운아이소아과의원, 055-231-9119, 경상남도 창원시 마산회원구 내서읍 경남대로 937  ,128.5041133,35.2337876
2136,김소아청소년과의원, 055-852-7501, 경상남도 사천시 사천읍 진삼로 1448  ,128.0865918,35.0804801
2152,낙동연합의원, 055-374-1224, 경상남도 양산시 상북면 양산대로 1400  낙동연합의원,129.0513966,35.3938006
2153,남지의원, 055-526-6080, 경상남도 창녕군 남지읍 낙동로 487  남지리 663-38,128.4779124,35.3890636
2166,덕영내과의원, 055-574-0071, 경상남도 의령군 의령읍 의병로 217  서동리 485-8번지,128.2604502,35.3197351
2177,맘앤아이의원, 055-638-1792, 경상남도 거제시 서간도길 9-9 (옥포동) 맘앤아이의원,128.6916507,34.8874797
2180,명내과의원, 055-232-8275, 경상남도 창원시 마산회원구 내서읍 삼계로 12  서현메디칼빌딩2F,128.5034759,35.232225
2186,문산성모의원, 055-761-4569, 경상남도 진주시 문산읍 동부로591번길 4  삼곡리 1261-5,128.1647054,35.1681096
2219,보람가정의학과의원, 055-586-0501, 경상남도 함안군 칠원읍 원서로 10  ,128.5183598,35.3082738
2226,북면소아청소년과의원, 055-294-2119, 경상남도 창원시 의창구 북면 동곡로 9  ,128.5852833,35.3172276
2227,비타민내과의원, 055-367-7501, 경상남도 양산시 동면 금오13길 4  네오스퀘어 302-303호,129.025635,35.3161516
2247,서울성모의원, 055-853-8277, 경상남도 사천시 사남면 조동길 49-19  서울성모의원,128.0669331,35.0606417
2255,서울연합의원, 055-635-7532, 경상남도 거제시 연초면 죽토2길 2  서울연합의원,128.6545445,34.9138466
2261,성모의원, 055-674-2742, 경상남도 고성군 고성읍 중앙로 22  ,128.3229017,34.9742141
2265,세광의원, 055-963-5753, 경상남도 함양군 함양읍 학사루길 20  학사루길 20,127.7260638,35.5189837
2298,양산부산대학교병원, 055-1577-7512, 경상남도 양산시 물금읍 금오로 20  양산부산대학교병원,129.0064588,35.328778
2300,양지의원, 055-884-1233, 경상남도 하동군 하동읍 중앙로 18  읍내리 송보파인빌 101-202,127.750606,35.0705341
2313,예림가정의학과의원, 055-355-7470, 경상남도 밀양시 상남면 고노실길 4  예림리1333-4,128.7512656,35.459083
2347,의료법인 성념의료재단맑은샘병원, 055-736-1004, 경상남도 거제시 연초면 거제대로 4477  의료법인성념의료재단 맑은샘병원,128.6436423,34.8977185
2348,의료법인 이도의료재단 남해병원, 055-863-2201, 경상남도 남해군 남해읍 화전로 169  의료법인이도의료재단,127.8942506,34.8464281
2353,의료법인창녕서울의료재단창녕서울병원, 055-532-1975, 경상남도 창녕군 창녕읍 창녕대로 122  탐하리 23-1,128.4977331,35.5348238
2386,장준혁소아청소년과의원, 055-252-0964, 경상남도 창원시 의창구 동읍 동읍로 1  용잠리 416-9,128.6844793,35.2773948
2394,정양숙소아청소년과의원, 055-758-6621, 경상남도 진주시 금산면 금산순환로 24  정양숙소아청소년과의원,128.147475,35.2163583
2400,제일소아과의원, 055-232-1550, 경상남도 창원시 마산회원구 내서읍 삼계5길 13  제일소아과의원,128.50358,35.2313461
2408,조일종가정의학과의원, 055-337-1175, 경상남도 김해시 인제로 180 (어방동) (어방동),128.9041716,35.2445736
2418,진교외과의원, 055-884-7582, 경상남도 하동군 진교면 진교중앙길 11  중앙길 11,127.9036154,35.028916
2419,진동삼성내과의원, 055-271-5931, 경상남도 창원시 마산합포구 진동면 삼진의거대로 623  ,128.485966,35.1153151
2430,참사랑의원, 055-632-2232, 경상남도 거제시 거제면 읍내로6길 15  ,128.5907875,34.8504571
2439,청해의원, 055-882-8540, 경상남도 하동군 진교면 진교중앙길 13  진교리 426-74,127.9034576,35.0288857
2452,태황의료재단한성병원, 055-530-5000, 경상남도 창녕군 창녕읍 교리1길 2  ,128.493308,35.5421488
2455,통영중앙병원, 055-643-9119, 경상남도 통영시 광도면 죽림5로 15  ,128.4192158,34.8877623
2469,하동군민여성의원, 055-882-7770, 경상남도 하동군 하동읍 중앙로 115  하동군민여성의원,127.7403536,35.0736655
2470,하동병원, 055-880-4200, 경상남도 하동군 하동읍 화심길 25  (의)애민의료재단,127.738327,35.0826194
2471,하동중앙내과정형외과의원, 055-883-0222, 경상남도 하동군 하동읍 연화길 6   6,127.7509179,35.0765263
2472,하동현대의원, 055-882-7377, 경상남도 하동군 하동읍 중앙로 15  ,127.7508729,35.0702392
2500,가정의원, 054-443-5119, 경상북도 구미시 고아읍 문장로22길 40  한누리상가 2층 203호 가정의원,128.3329232,36.1530704
2504,건강한소아과의원, 054-482-6059, 경상북도 구미시 선산읍 선산대로 1399-6  ,128.3030654,36.2400835
2526,김상관소아과의원, 054-977-9759, 경상북도 칠곡군 석적읍 석적로 933-4  남율리 759번지,128.3935663,36.0737837
2531,김연수신경외과의원, 054-732-7600, 경상북도 영덕군 영해면 예주시장길 10  ,129.4051558,36.5384631
2533,김원태소아청소년과의원, 054-292-3325, 경상북도 포항시 남구 오천읍 정몽주로 647  오천읍 용덕4리 360-3,129.4136854,35.9756032
2535,김탁관내과의원, 054-441-1982, 경상북도 구미시 고아읍 문장로 190  원호리 444-3,128.3309089,36.1502406
2539,누가의원, 054-782-4979, 경상북도 울진군 북면 울진북로 2067  ,129.371875,37.1012487
2553,라임소아청소년과의원, 054-246-7575, 경상북도 포항시 남구 오천읍 남원로 86-28  라임소아청소년과의원,129.4004709,35.9715755
2568,박미애가정의학과의원, 054-977-4567, 경상북도 칠곡군 석적읍 석적로 955-6  남율리 732-2,128.3928471,36.0755368
2584,삼도선린의원, 054-261-3477, 경상북도 포항시 북구 흥해읍 도음로877번길 8 베스트프라자 204호 ,129.3303767,36.0793416
2585,삼부가정의학과의원, 054-975-8129, 경상북도 칠곡군 왜관읍 중앙로 73  왜관리 841-43번지,128.3982431,35.9817152
2591,삼성의원, 054-873-8275, 경상북도 청송군 청송읍 강변로 43  삼성의원,129.0514556,36.4359292
2627,신명준외과의원, 054-285-8001, 경상북도 포항시 남구 연일읍 연일중앙로 19-1  연일읍생지리255,129.3463406,35.9976453
2629,신세계내과의원, 053-857-8823, 경상북도 경산시 하양읍 대학로296길 7  금락리 396-6번지,128.8242741,35.9102451
2630,신세계연합의원, 053-856-8275, 경상북도 경산시 진량읍 봉황길 24  봉회리57번지,128.82065,35.884332
2662,예주한솔의원, 054-734-4064, 경상북도 영덕군 영해면 예주시장7길 4-1  성내리 470-7번지,129.4088828,36.5400281
2663,예천권병원, 054-654-6611, 경상북도 예천군 예천읍 시장로 136  예천권병원,128.458942,36.6574115
2665,오천성모의원, 054-292-7575, 경상북도 포항시 남구 오천읍 정몽주로 621  오천성모의원 ,129.4146234,35.9734305
2672,우리가정의학과의원, 054-975-7585, 경상북도 칠곡군 북삼읍 안산2길 13-7  우리가정의학과의원,128.3338855,36.0650847
2673,우리들연합정형외과의원, 054-262-5556, 경상북도 포항시 북구 흥해읍 한동로 42  흥해읍 옥성리 62-2번지,129.3459744,36.1103638
2680,울진군의료원, 054-785-7026, 경상북도 울진군 울진읍 현내항길 71  ,129.4095737,36.9926961
2682,원이비인후과의원, 054-973-0019, 경상북도 칠곡군 왜관읍 중앙로 221-1  ,128.3989282,35.9947762
2687,유튼튼소아청소년과의원, 054-292-1200, 경상북도 포항시 남구 오천읍 원동로 51  유튼튼소아청소년과의원,129.4024885,35.9675491
2707,이우진소아과의원, 054-286-1135, 경상북도 포항시 남구 연일읍 철강로25번길 52  연일읍 생지리 221번지,129.3461321,35.9962203
2715,장유석외과의원, 053-851-7007, 경상북도 경산시 하양읍 하양로 108-1  금락리 133-5번지,128.8193572,35.9136829
2722,제일의원, 054-371-2930, 경상북도 청도군 청도읍 청화로 106  고수리 154-49,128.7384802,35.646613
2724,제일튼튼연합의원, 054-972-9922, 경상북도 칠곡군 석적읍 강변대로 2291  ,128.3944296,36.0762156
2727,조은소아과의원, 054-973-6208, 경상북도 칠곡군 왜관읍 중앙로 140  왜관리 296-1번지,128.3997462,35.9875891
2734,진연합의원, 054-832-7588, 경상북도 의성군 의성읍 문소3길 109  후죽리 837-1번지,128.6938421,36.3554006
2757,하늘천의원, 054-858-4023, 경상북도 안동시 풍산읍 풍산중앙길 131  안교리 67번지,128.5750675,36.5787694
2760,하양중앙내과의원, 053-856-4567, 경상북도 경산시 하양읍 하양로 125  금락2리 1-11,128.820681,35.9148789
2764,한빛연합의원, 054-284-5818, 경상북도 포항시 남구 동해면 일월로 140-1  -,129.448325,35.9876096
2777,현대외과의원, 053-817-1797, 경상북도 경산시 압량면 대학로 345  부적리 514-13,128.7583011,35.8402072
2786,황영희소아과의원, 054-972-1950, 경상북도 칠곡군 왜관읍 중앙로 203-2  왜관리 234-10,128.3989287,35.9931561
2787,흥해아동병원, 054-240-1004, 경상북도 포항시 북구 흥해읍 흥해로 95  의료법인 새싹의료재단 흥해아동병원,129.3472064,36.1131446
3011,경대맑은이비인후과의원, 053-636-0369, 대구광역시 달성군 화원읍 비슬로 2597  ,128.5005239,35.8047842
3052,김지희내과의원, 053-615-7114, 대구광역시 달성군 논공읍 논공로 758  북리 803-178,128.4451246,35.7291344
3066,다사랑패밀리의원, 053-588-0660, 대구광역시 달성군 다사읍 다사역로 42  다사랑패밀리의원 ,128.4575992,35.8661022
3096,로즈맘산부인과의원, 053-593-3575, 대구광역시 달성군 다사읍 달구벌대로 874  로즈맘산부인과,128.4643372,35.8579676
3119,범물소아청소년과의원, 053-783-5800, 대구광역시 수성구 지범로 208  범물소아청소년과의원,128.6413243,35.8197418
3162,속찬내과의원, 053-633-5882, 대구광역시 달성군 화원읍 비슬로 2585  천내리 40-8 2층 속찬내과의원,128.4994209,35.8041141
3192,아이플러스소아청소년과의원, 053-593-3232, 대구광역시 달성군 다사읍 서재로7길 2  ,128.4928817,35.8682507
3199,연세의원, 053-638-6383, 대구광역시 달성군 화원읍 성암로1길 19  연세의원,128.509745,35.801981
3202,열린이비인후과의원, 053-611-2929, 대구광역시 달성군 유가면 테크노상업로 98  ,128.4600992,35.6932325
3206,영이비인후과의원, 053-635-5082, 대구광역시 달성군 화원읍 화암로 69  명곡리 110-3번지 201호,128.4960706,35.7979166
3233,윤가정의학과의원, 053-592-1046, 대구광역시 달성군 다사읍 달구벌대로 800-2  ,128.4587226,35.8621148
3240,이노소아청소년과의원, 053-719-0267, 대구광역시 달성군 현풍면 테크노상업로 52  ,128.4557968,35.6930972
3252,이지소아청소년과의원, 053-585-0999, 대구광역시 달성군 다사읍 대실역북로 12  매곡리 1549번지 삼영메디빌 2층 202호,128.4667701,35.8578569
3255,이화소아청소년과의원, 053-781-0603, 대구광역시 수성구 지범로 178 (지산동) 1275-14번지 2층,128.6385723,35.8213139
3259,임정화소아과의원, 053-614-8211, 대구광역시 달성군 논공읍 논공로17길 16-20  -,128.4438432,35.729921
3355,화원제일내과의원, 053-642-8772, 대구광역시 달성군 화원읍 비슬로 2574  화원제일내과의원,128.4983509,35.8032258
3510,예일의원, 042-936-4040, 대전광역시 대덕구 신탄진로 836 (신탄진동) 예일의원,127.4291389,36.4520519
3675,녹십자의원, 051-727-3355, 부산광역시 기장군 장안읍 해맞이로 427  ,129.2821642,35.3297056
3694,동남권원자력의학원, 051-720-5114, 부산광역시 기장군 장안읍 좌동길 40  좌동리 267-2,129.2435492,35.3214002
3736,박소아청소년과의원, 051-721-0730, 부산광역시 기장군 기장읍 차성동로 63  석천메디컬센터 2층,129.2162196,35.2435001
3854,우리가정의학과의원, 051-757-4020, 부산광역시 수영구 광안해변로 431 (민락동) 우리가정의학과의원,129.1292952,35.1599394
3871,은혜내과의원, 051-202-6115, 부산광역시 사하구 하신번영로 407 (하단동) 302 은혜내과의원,128.9602773,35.1173916
3882,이광욱내과의원, 051-722-9957, 부산광역시 기장군 기장읍 읍내로 116  동부리 280-2 기장메디칼,129.2170632,35.2449082
4064,고려대의과대학부속병원, 02-920-5114, 서울특별시 성북구 인촌로 73 (안암동5가) 고려대의과대학부속병원,127.0263537,37.5870165
5179,조성윤소아청소년과의원, 02-491-3933, 서울특별시 중랑구 용마산로 426 (면목동) 조성윤소아과의원,127.0971262,37.5894348
5460,부강제일의원, 044-275-3330, 세종특별자치시 부강면 부강5길 11-1  ,127.3682628,36.5286482
5476,세종영상의학과의원, 044-866-0009, 세종특별자치시 금남면 용포로 110  용포리 212-1 (2층),127.281673,36.468493
5494,중앙의원, 044-862-4408, 세종특별자치시 전의면 읍내길 20  읍내리 199-3,127.2044367,36.6810989
5500,한마음의원, 044-277-6446, 세종특별자치시 부강면 부강4길 10  부강리 460-6,127.367525,36.5289917
5525,남혜주의원, 052-211-7682, 울산광역시 울주군 범서읍 점촌4길 26  구영리 838-4 구암빌딩 3층,129.2381319,35.5704867
5526,다사롬소아과의원, 052-246-8575, 울산광역시 울주군 범서읍 천상3길 10-14  천상리 659-1번지,129.2262813,35.5633268
5563,서울산보람병원, 052-255-7114, 울산광역시 울주군 삼남면 중평로 53  교동리 378,129.1207349,35.5600045
5582,우리아동병원, 052-716-1365, 울산광역시 울주군 언양읍 헌양길 175  ,129.1169795,35.5670633
5608,이태일의원, 052-239-4778, 울산광역시 울주군 온산읍 영남6길 20  덕신리 1361-1,129.3078131,35.440441
5636,한사랑의원, 052-238-8035, 울산광역시 울주군 온양읍 연안2길 19  한사랑 의원,129.2823323,35.4085581
5639,햇살아동병원, 052-211-8448, 울산광역시 울주군 범서읍 천상중앙길 80  햇살아동병원,129.227749,35.563095
6086,김성훈이비인후과의원, 061-864-5075, 전라남도 장흥군 장흥읍 중앙로 23-1  건산리 386-2(2층) 나동,126.907992,34.6780812
6088,나눔내과의원, 061-381-8275, 전라남도 담양군 수북면 추성1로 736  나눔내과의원,126.9319769,35.3016573
6089,남악아동병원, 061-288-8000, 전라남도 무안군 삼향읍 대죽동로 30  남악아동병원,126.4644406,34.8111948
6096,담양동산병원, 061-383-0666, 전라남도 담양군 담양읍 죽향대로 1203  ,126.9822364,35.3133579
6097,담양사랑병원, 061-380-9000, 전라남도 담양군 담양읍 천변7길 19  천변리 182-1번지,126.9825103,35.3153617
6099,돌산성심의원, 061-644-0106, 전라남도 여수시 돌산읍 돌산로 1187  ,127.7288413,34.6166129
6105,목포아동의원, 061-285-9524, 전라남도 무안군 삼향읍 남악4로 71  ,126.4654578,34.812144
6118,삼호연세의원, 061-462-7588, 전라남도 영암군 삼호읍 삼호중앙로 168  용앙리 379-29외1필지,126.4691071,34.7452119
6119,삼호의원, 061-461-0075, 전라남도 영암군 삼호읍 신항로 63-5  삼호의원,126.3807138,34.7447707
6123,성경의원, 061-862-3838, 전라남도 장흥군 장흥읍 동교1길 33  건산리 385-31번지,126.9089428,34.6778895
6126,소망내과의원, 061-852-8811, 전라남도 보성군 보성읍 현충로 94  보성리 888-20,127.0819569,34.7676126
6134,아산사회복지재단 보성아산병원, 061-850-3606, 전라남도 보성군 미력면 가평길 36-17  ,127.1045625,34.7758583
6138,엔젤소아청소년과의원, 061-352-3229, 전라남도 영광군 영광읍 옥당로 152  엔젤소아과의원,126.5015687,35.2756529
6155,완도대성병원, 061-553-1234, 전라남도 완도군 완도읍 청해진동로 63  ,126.735575,34.3171667
6158,우리들내과의원, 061-433-8275, 전라남도 강진군 강진읍 중앙로 95  우리들내과의원,126.7674789,34.6386852
6160,월출기찬의원, 061-471-7555, 전라남도 영암군 영암읍 동문로 5  월출기찬의원,126.7024397,34.7961691
6162,위형중내과의원, 061-537-2266, 전라남도 해남군 해남읍 중앙2로 91  위형중내과,126.5969353,34.56812
6163,유기섭내과의원, 061-857-2000, 전라남도 보성군 벌교읍 채동선로 225  ,127.3445661,34.8426375
6167,의료법인거명의료재단 영광기독병원, 061-350-3000, 전라남도 영광군 영광읍 신남로 265  거명의료재단영광기독병원,126.510877,35.274938
6187,전라남도 강진의료원, 061-433-2167, 전라남도 강진군 강진읍 탐진로 5  전라남도강진의료원,126.7578654,34.6368113
6190,차소아청소년과의원, 061-371-3111, 전라남도 화순군 화순읍 중앙로 89  만연리 240-8번지,126.9912772,35.0606567
6191,차소아청소년과의원, 061-763-8295, 전라남도 광양시 광양읍 칠성로 55  칠성리 897-13번지,127.5846596,34.9790532
6202,하나의원, 061-858-7588, 전라남도 보성군 벌교읍 채동선로 215  하나의원,127.3433802,34.8423506
6206,한마음내과의원, 061-863-1500, 전라남도 장흥군 장흥읍 동교2길 13-19  건산리 739-13,126.9060764,34.6784994
6208,한솔의원, 061-395-2290, 전라남도 장성군 장성읍 영천로 125-1  영천리 931,126.7808884,35.2968064
6212,해남우리종합병원, 061-530-7000, 전라남도 해남군 옥천면 해남로 597  ,126.6465633,34.5842521
6215,현대중앙의원, 061-832-1134, 전라남도 고흥군 과역면 시장안길 22  과역리 168-16,127.361663,34.6796898
6238,김홍기가정의학과의원, 063-433-2341, 전라북도 진안군 진안읍 중앙로 88  군상리 441-3,127.4269749,35.7924249
6288,신소아청소년과의원, 063-291-0081, 전라북도 완주군 삼례읍 동학로 38  ,127.0748006,35.9110716
6298,엔젤연합소아청소년과의원, 063-584-1049, 전라북도 부안군 부안읍 석정로 233  봉덕리 793-5번지 천조빌딩,126.7375691,35.7247137
6302,연세의원, 063-352-1478, 전라북도 장수군 장계면 서동로 36  ,127.5810734,35.7309474
6304,예담소아청소년과의원, 063-222-7287, 전라북도 완주군 이서면 기지로 56  예담소아청소년과의원,127.0582206,35.8381029
6311,우리가정의학과의원, 063-433-6800, 전라북도 진안군 진안읍 진무로 1128  군상리 403-1,127.4316059,35.7926377
6322,의료법인석천재단고창병원, 063-560-5600, 전라북도 고창군 고창읍 화신1길 9  읍내리 663,126.69335,35.4364179
6338,이혁소아청소년과의원, 063-261-0507, 전라북도 완주군 봉동읍 완주산단9로 24  둔산리 877-6 둔산빌딩 2층,127.1263839,35.9620431
6366,진안군의료원, 063-430-7000, 전라북도 진안군 진안읍 진무로 1145  ,127.4317264,35.7952476
1,21세기소아청소년과의원, 033-745-0815, 강원도 원주시 봉화로 27 (단계동)  ,127.9283262,37.3469313
4,강릉아산병원, 033-610-3799, 강원도 강릉시 사천면 방동길 38  -,128.8578411,37.8184325
5,강원대학교병원, 033-258-2000, 강원도 춘천시 백령로 156 (효자동)  ,127.744891,37.8751611
6,강원도 삼척의료원, 033-572-1141, 강원도 삼척시 오십천로 418 (남양동) ,129.1638017,37.4403018
7,강원도 영월의료원, 033-370-9128, 강원도 영월군 영월읍 중앙1로 59  ,128.4652388,37.1864525
8,강원도 원주의료원, 033-760-4546, 강원도 원주시 서원대로 387 (개운동) ,127.949225,37.332608
10,강원도속초의료원, 033-630-6000, 강원도 속초시 영랑호반길 3 (영랑동)  ,128.5892485,38.2164607
12,개성소아청소년과의원, 033-635-3229, 강원도 속초시 동해대로 4215 (교동)  ,128.5772842,38.1952331
13,고려산부인과의원, 033-635-3579, 강원도 속초시 중앙로 96 (청학동)  ,128.5864875,38.2013263
14,고석연가정의학과의원, 033-254-0121, 강원도 춘천시 후석로 244 (후평동)  ,127.7528979,37.8732828
16,구철회내과의원, 033-244-3500, 강원도 춘천시 춘천로 188 (효자동)  ,127.7352233,37.876082
17,근로복지공단 태백병원, 033-580-3114, 강원도 태백시 보드미길 8 (장성동)  ,129.0043366,37.1040964
19,기린소아청소년과의원, 033-432-7208, 강원도 홍천군 홍천읍 홍천로 321 (안정스의트타워)  2층 203호 ,127.8807723,37.6889055
20,김내과의원, 033-252-7595, 강원도 춘천시 영서로 2777 (우두동)  ,127.7284765,37.9011692
21,김대균의원, 033-735-9201, 강원도 원주시 단구로 404 (단구동)  2층 ,127.9550094,37.3208904
22,김소아청소년과의원, 033-637-1800, 강원도 속초시 청대로 347 (교동)  ,128.5721888,38.1974651
23,꾸러기소아과의원, 033-531-0222, 강원도 동해시 중앙로 249 (천곡동)  ,129.1134223,37.522743
25,나라연소아청소년과의원, 033-745-0997, 강원도 원주시 시청로 84 (무실동) ,127.9280529,37.3363633
26,나소아과의원, 033-572-7988, 강원도 삼척시 청석로 63 (교동)  ,129.1757335,37.4481935
29,누누베베소아과의원, 033-254-2266, 강원도 춘천시 충열로 39 (우두동)  ,127.7327187,37.8994774
30,다나의원, 033-653-7572, 강원도 강릉시 월대산로 56-7 (입암동)  ,128.916971,37.7593905
31,다사랑의원, 033-244-8275, 강원도 춘천시 영서로 2779 (우두동)  ,127.7284277,37.9013552
32,더사랑소아청소년과의원, 033-732-2693, 강원도 원주시 오리현길 16-9 (반곡동)  1층 ,127.9677949,37.3386155
35,두리의원, 033-263-7582, 강원도 춘천시 안마산로 199 (퇴계동)  3층 302호 ,127.7364752,37.8504981
36,류상우소아청소년과의원, 033-553-2094, 강원도 태백시 연지로 21 (황지동)  ,128.9893745,37.1757031
37,미래산부인과의원, 033-241-7677, 강원도 춘천시 중앙로 118 (소양로4가) ,127.7220293,37.8767664
38,미래산부인과의원, 033-766-8008, 강원도 원주시 단구로 183 (명륜동)  ,127.948717,37.3360821
40,미즈산부인과의원, 033-733-6100, 강원도 원주시 이화6길 1 (단계동)  ,127.9322618,37.343555
41,박유인소아청소년과의원, 033-641-2391, 강원도 강릉시 솔올로 25 (교동)  2층 ,128.8776272,37.7642131
44,봄내아이소아청소년과의원, 033-264-1191, 강원도 춘천시 지석로 11 (퇴계동)  ,127.7375201,37.8535306
47,새봄산부인과의원, 033-745-5600, 강원도 원주시 시청로 98 (무실동)  ,127.9287236,37.3358928
48,서울아산의원, 033-635-6565, 강원도 속초시 중앙로 88-1 (청학동)  ,128.5857959,38.2013459
51,성심의원, 033-262-3114, 강원도 춘천시 퇴계로 166 (퇴계동)  ,127.7374303,37.8581429
52,성심의원, 033-433-9117, 강원도 홍천군 홍천읍 갈마로 15   2층,127.8984629,37.6928236
55,세가온산부인과의원, 033-650-9120, 강원도 강릉시 율곡로 2982-6 (교동)  ,128.8923474,37.7682777
56,세가온소아청소년과의원, 033-655-9393, 강원도 강릉시 율곡로 2982-6 (교동)  1층 ,128.8923474,37.7682777
57,송소아청소년과의원, 033-633-1621, 강원도 속초시 동해대로 4117 (조양동) ,128.5840154,38.1892434
58,송이비인후과의원, 033-244-7550, 강원도 춘천시 춘주로 143 (퇴계동)  ,127.724459,37.8589993
60,심소아청소년과의원, 033-264-0369, 강원도 춘천시 동면 춘천순환로 609   3층,127.7556461,37.8931677
61,아름다운산부인과의원, 033-244-7800, 강원도 춘천시 터미널길 21 (온의동)  1-3층 ,127.7191267,37.8643822
62,아이맘산부인과의원, 033-532-8081, 강원도 동해시 한섬로 113-7 (천곡동)  ,129.1159264,37.5223215
70,연세대학교 원주세브란스기독병원, 033-741-0114, 강원도 원주시 일산로 20 (일산동)   ,127.9456639,37.3490013
71,연세메디컬의원, 033-734-0365, 강원도 원주시 시청로 70 (무실동)  ,127.9263716,37.3373089
72,연세소아청소년과의원, 033-641-9508, 강원도 강릉시 금성로22번길 8 (금학동)  ,128.897785,37.7544997
73,연세순풍산부인과의원, 033-745-0199, 강원도 원주시 장미공원길 43-6 (단계동)  ,127.9302295,37.3465223
74,연세이앤피의원, 033-553-6903, 강원도 태백시 황지로 131 (황지동)  ,128.9919692,37.1706235
76,연세탑이비인후과의원, 033-743-5075, 강원도 원주시 혁신로 55 (반곡동)  207호 ,127.9804354,37.3234325
77,예인의원, 033-452-8275, 강원도 철원군 갈말읍 삼부연로8번길 4-2   2층,127.3088114,38.1447395
78,오은경소아청소년과의원, 033-765-2027, 강원도 원주시 영랑길 14-2 (행구동)  청연재빌딩 5층 502호 ,127.9717075,37.3410021
79,온세의원, 033-252-7660, 강원도 춘천시 스포츠타운길 533 (온의동) ,127.7146329,37.8691072
80,우리가정의원, 033-766-1177, 강원도 원주시 나비허리길 169 (관설동)  2층 ,127.9658403,37.3185011
81,우리들소아청소년과의원, 033-747-0202, 강원도 원주시 감영길 11 (일산동)  ,127.9500358,37.3474624
84,우리소아과의원, 033-263-9502, 강원도 춘천시 영서로 2025 (석사동)  ,127.7457254,37.8525079
85,우리아이소아청소년과의원, 033-761-2755, 강원도 원주시 단구로 388 (단구동)  2층 ,127.9560247,37.3221765
89,윤가정의원, 033-455-1777, 강원도 철원군 동송읍 금학로 222   2층,127.2181884,38.2084031
90,윤동석내과의원, 033-263-7524, 강원도 춘천시 칠전서길 38-14 (칠전동)  ,127.7133787,37.8421741
91,윤화준소아청소년과의원, 033-262-8275, 강원도 춘천시 퇴계농공로 22 (석사동)  ,127.7441187,37.8512392
93,의료법인 강릉동인병원, 033-650-6111, 강원도 강릉시 강릉대로419번길 42 (포남동)   ,128.90735,37.77435
94,이복순의원, 033-455-2262, 강원도 철원군 동송읍 금학로 224-1   3층,127.2180672,38.2086842
95,이소아청소년과의원, 033-662-8636, 강원도 강릉시 주문진읍 주문로 107   2층,128.8271895,37.8934539
98,이정열내과의원, 033-243-7659, 강원도 춘천시 춘주로 151 (퇴계동)  2층 ,127.7251478,37.8586309
99,이현철소아청소년과의원, 033-636-0282, 강원도 속초시 동해대로 4147 (조양동)  비동3층 ,128.5805187,38.1895574
100,이호영소아청소년과의원, 033-635-6030, 강원도 속초시 청학로 47 (청학동)  ,128.5828453,38.2023059
101,이화코난소아청소년과의원, 033-553-7119, 강원도 태백시 번영로 359-1 (황지동)  ,128.992796,37.1717717
102,인구보건복지협회강원지회가족보건의원, 033-260-8900, 강원도 춘천시 김유정로 1846 (퇴계동)  ,127.7345608,37.8515894
104,정내과의원, 033-761-0822, 강원도 원주시 단구로 393 (단구동)  2층 ,127.956167,37.3217891
106,제일산부인과의원, 033-635-9051, 강원도 속초시 청학로 47 (청학동)  ,128.5828453,38.2023059
107,조소아청소년과의원, 033-644-8256, 강원도 강릉시 교동광장로 105 (교동)  ,128.876436,37.7650697
110,중앙산부인과의원, 033-637-9887, 강원도 속초시 동해대로 4117 (조양동)  ,128.5840154,38.1892434
115,최원규소아청소년과의원, 033-734-9595, 강원도 원주시 원일로115번길 5 (일산동)  ,127.9480168,37.3495865
117,키즈메디소아청소년과의원, 033-742-0707, 강원도 원주시 능라동길 61 (무실동) 정한타워 3층 301호,127.9312335,37.3341487
118,탑속편한의원, 033-635-5266, 강원도 속초시 미시령로3359번길 20 (교동)  2층 201호 ,128.5746259,38.2070773
121,편안한이내과의원, 033-458-8275, 강원도 철원군 서면 와수로 164-1164,127.4382874,38.2382267
122,푸른솔의원, 033-747-8259, 강원도 원주시 천사로 50 (단계동)  2층 ,127.9309948,37.3475692
123,한림대학교부속 춘천성심병원, 033-240-5000, 강원도 춘천시 삭주로 77 (교동)  ,127.7399592,37.8840791
124,한림성심의원, 033-441-1175, 강원도 화천군 사내면 사내로5길 16-1 (한림성심의원)  ,127.5204173,38.0710401
126,한마음산부인과의원, 033-553-6901, 강원도 태백시 서황지로 4 (황지동)  ,128.9901659,37.1719974
127,한마음소아청소년과의원, 033-241-3667, 강원도 춘천시 후석로 326 (후평동)  5층 ,127.7500925,37.8800489
129,한빛소아청소년과의원, 033-743-3388, 강원도 원주시 태장둔치길 41-1 (태장동) ,127.9519942,37.3840035
131,한빛이비인후과의원, 033-761-5002, 강원도 원주시 시청로 36 (무실동)  ,127.9236214,37.3391898
133,한사랑의원, 033-462-2223, 강원도 인제군 인제읍 인제로193번길 11,128.1715713,38.0689796
134,한소아과의원, 033-531-6247, 강원도 동해시 천곡로 86-2 (천곡동)  대륜빌딩 2층 ,129.1150224,37.5228662
136,행복누리산부인과의원, 033-641-6680, 강원도 강릉시 경강로 2109 (임당동)  ,128.8972134,37.7556773
137,행복한소아청소년과의원, 033-652-4650, 강원도 강릉시 성덕포남로182번길 46 (포남동)  ,128.9133402,37.7700173
139,호산부인과의원, 033-264-1700, 강원도 춘천시 퇴계로 189 (석사동)  ,127.7398119,37.8575123
141,홍천아산병원, 033-430-5104, 강원도 홍천군 홍천읍 산림공원1길 1717,127.8948538,37.6908303
144,인구보건복지협회경기도지회가족보건의원, 031-256-4644, 경기도 수원시 팔달구 고화로14번길 11 (매산로3가)  ,127.0082598,37.2711545
145,영문의료재단 다보스병원, 031-8021-2114, 경기도 용인시 처인구 백옥대로1082번길 18 (김량장동)  1082-18 ,127.2114455,37.2314491
149,365건강한부곡의원, 031-461-9088, 경기도 의왕시 부곡중앙남3길 2 (삼동)  ,126.9508887,37.3207697
159,365연합의원, 031-611-2119, 경기도 평택시 송탄로40번길 79-16 (이충동)  ,127.0573139,37.0520911
160,365열린의원, 031-405-0365, 경기도 안산시 상록구 시낭북로4길 1 (부곡동)  2층 ,126.8581666,37.3352878
163,365플러스의원, 032-345-3657, 경기도 부천시 경인로 532 (괴안동)  3층 ,126.8142618,37.4849195
164,365힐링의원, 031-203-3650, 경기도 수원시 영통구 영통로 151 (망포동)  2층 ,127.0552642,37.2409762
166,Dr.배가정의학과의원, 070-8824-4846, 경기도 이천시 부발읍 경충대로 2096-4   209호,127.490306,37.2521023
169,SK메디모아소아청소년과의원, 031-302-9933, 경기도 수원시 장안구 이목로 24-9 (정자동)  ,126.9848709,37.3093339
170,e-서울이비인후과의원, 031-387-5075, 경기도 안양시 동안구 관평로 312 (관양동)  3층 ,126.9574422,37.403905
177,가좌우리의원, 031-921-3215, 경기도 고양시 일산서구 가좌3로 29 (가좌동)  1층 ,126.7191258,37.6873987
178,가톨릭대학교부천성모병원, 032-1577-0675, 경기도 부천시 소사로 327 (소사동)  ,126.7924167,37.4871165
179,가톨릭대학교성빈센트병원, 031-249-7114, 경기도 수원시 팔달구 중부대로 93 (지동)  ,127.0274271,37.2779855
180,가톨릭대학교의정부성모병원, 031-1661-7500, 경기도 의정부시 천보로 271 (금오동)  ,127.0777625,37.7587045
183,강남병원, 031-300-0782, 경기도 용인시 기흥구 중부대로 411 (신갈동)  ,127.1115072,37.2737515
186,강남소아청소년과의원, 031-681-6555, 경기도 평택시 안중읍 안현로서6길 68   3층,126.9216123,36.9847815
187,강남여성병원, 031-222-7575, 경기도 수원시 팔달구 중부대로 96 (인계동)  ,127.0274792,37.2767499
193,강소아청소년과의원, 031-498-7577, 경기도 시흥시 배곧4로 32-9 (정왕동)  골든프라자 2층 206호 ,126.7272129,37.3768086
194,강영찬가정의학과의원, 031-254-2722, 경기도 수원시 장안구 창룡대로 185 (연무동)  ,127.0303508,37.2925386
200,건강드림내과의원, 031-666-8275, 경기도 평택시 탄현로336번길 10 (지산동)  ,127.0568373,37.081679
203,경기도의료원 수원병원, 031-888-0582, 경기도 수원시 장안구 수성로245번길 69 (정자동)  ,126.9963375,37.2918917
204,경기도의료원 안성병원, 031-8046-5131, 경기도 안성시 남파로 95 (당왕동)  ,127.2603668,37.0173531
205,경기도의료원의정부병원, 031-828-5000, 경기도 의정부시 흥선로 142 (의정부동) ,127.0425004,37.741161
206,경기도의료원이천병원, 031-639-4998, 경기도 이천시 경충대로 2742 (관고동)  ,127.4325729,37.2827618
207,경기도의료원파주병원, 031-940-9100, 경기도 파주시 중앙로 207 (금촌동) ,126.7801503,37.7550649
208,경기도의료원포천병원, 031-539-9114, 경기도 포천시 포천로 1648 (신읍동)  ,127.19828,37.9033163
209,경혜신소아과의원, 031-485-1063, 경기도 안산시 단원구 예술대학로 83 (고잔동)  202호 ,126.837101,37.3244171
213,고려대학교의과대학부속안산병원, 031-412-5760, 경기도 안산시 단원구 적금로 123 (고잔동)  ,126.8249033,37.3185144
215,고려웰니스의원, 031-684-1800, 경기도 평택시 안중읍 안현로서8길 23 (동흥빌딩)  3층 ,126.9227679,36.9790704
216,고려은여울의원, 031-992-2588, 경기도 김포시 김포한강8로 165 (마산동)  한강하모니프라자 3층 302호 ,126.6435702,37.6372158
217,고려이비인후과의원, 031-559-5075, 경기도 남양주시 화도읍 경춘로 1992 (롯데마트)  202호 ,127.3094425,37.6502259
218,고려정성가정의학과의원, 031-797-9540, 경기도 광주시 초월읍 경충대로 926926,127.3115105,37.3651374
220,고려중앙의원, 031-742-8282, 경기도 성남시 수정구 논골로 7 (단대동)  2층 ,127.1604619,37.4548013
221,고려하나의원, 02-899-1182, 경기도 광명시 안재로10번길 32 (하안동) ,126.8748411,37.4608638
223,고양연세소아과의원, 031-964-7534, 경기도 고양시 덕양구 혜음로 29-1 (고양동)  ,126.9017163,37.7031817
226,고운여성병원, 032-665-0070, 경기도 부천시 부천로 110-1 (원미동)  2~6층 ,126.7853713,37.4940538
227,고은맘소아청소년과의원, 031-227-5275, 경기도 수원시 팔달구 일월로22번길 15 (화서동)  ,126.9805753,37.2858662
238,곽내과의원, 031-529-7582, 경기도 남양주시 오남읍 진건오남로 629-1 (진주상가)  217호 ,127.2117427,37.6892858
239,곽여성병원, 031-752-1119, 경기도 성남시 수정구 수정로 91 (태평동)  ,127.1304573,37.4407911
241,관악가정의학과의원, 031-472-1175, 경기도 안양시 만안구 경수대로 1259 (석수동)  3층 ,126.9093453,37.4197714
248,광주제일내과의원, 031-763-2601, 경기도 광주시 중앙로 101 (경안동)  3층 ,127.2584046,37.4088212
254,구소아청소년과의원, 031-741-9978, 경기도 성남시 중원구 광명로347번길 2 (금광동)  3층 ,127.1645347,37.4463228
257,국립암센터, 031-920-1240, 경기도 고양시 일산동구 일산로 323 (마두동)  ,126.783446,37.6632435
260,굿닥터소아과의원, 031-214-6235, 경기도 수원시 팔달구 권광로276번길 4 (인계동)  ,127.0360737,37.2716626
262,굿모닝가정의원, 031-733-7585, 경기도 성남시 수정구 수정남로 297 (산성동)  2층 ,127.1510709,37.4551626
263,굿모닝내과의원, 031-253-8575, 경기도 수원시 장안구 경수대로1073번길 3 (파장동)  ,126.9949206,37.308827
267,굿모닝이비인후과의원, 031-410-2209, 경기도 안산시 단원구 선부광장1로 70 (선부동)  2층 ,126.8119347,37.3359531
268,굿모닝이비인후과의원, 031-575-9696, 경기도 남양주시 퇴계원면 퇴계원로 46 (신한빌딩)  4층 ,127.1419999,37.650754
273,권내과의원, 031-215-7288, 경기도 수원시 영통구 중부대로246번길 48-2 (매탄동) ,127.0416634,37.273003
276,권소아청소년과의원, 031-677-0134, 경기도 안성시 중앙로 368 (석정동)  모아빌딩 1층 103호 ,127.2676149,37.0077316
278,권순구내과의원, 032-611-5234, 경기도 부천시 중동로 166 (중동)  2층 ,126.7679423,37.4937699
283,그린힐의원, 031-376-6075, 경기도 오산시 발안로 1367 (누읍동)  202호 ,127.0478546,37.142263
284,근로복지공단안산병원, 031-500-1105, 경기도 안산시 상록구 구룡로 87 (일동)  ,126.874139,37.3167269
285,금.란산부인과의원, 031-335-1155, 경기도 용인시 처인구 금령로106번길 13-5 (김량장동)  ,127.2085659,37.23451
287,금곡의원, 031-559-7591, 경기도 남양주시 홍유릉로 290-4 (금곡동)  ,127.2017093,37.6276964
288,금동소아청소년과의원, 031-734-5678, 경기도 성남시 중원구 산성대로372번길 3 (금광동)  ,127.157521,37.445236
289,기독의원, 031-322-1512, 경기도 용인시 처인구 백암면 백암로 217 (2층)  ,127.3736593,37.1655282
292,기분조은이비인후과의원, 031-574-2438, 경기도 남양주시 오남읍 진건오남로 812   201호,127.2026117,37.6989647
294,길내과의원, 031-666-6902, 경기도 평택시 관광특구로 19 (서정동)  3층 ,127.0609136,37.0672659
299,김경신소아청소년과의원, 031-246-7067, 경기도 수원시 장안구 파장로 37 (파장동)  ,126.9963336,37.3051752
301,김경훈정형외과소아청소년과의원, 031-793-1246, 경기도 하남시 대청로 38-8 (신장동)  ,127.2163741,37.5403362
303,김광정소아과의원, 032-613-7007, 경기도 부천시 경인로248번길 7 (심곡본동) ,126.7832402,37.4827658
304,김광호따뜻한의원, 031-461-8800, 경기도 의왕시 부곡시장길 35 (삼동)  ,126.9527538,37.3187272
314,김두희가정의학과의원, 031-665-6765, 경기도 평택시 점촌로32번길 3 (서정동)  2층 ,127.0578,37.0631553
315,김란미즈산부인과의원, 031-772-2136, 경기도 양평군 양평읍 시민로 12   2층,127.4935028,37.4894169
318,김병수내과의원, 031-473-3575, 경기도 안양시 만안구 석천로 181 (석수동)  ,126.9088499,37.4127575
319,김병연소아청소년과의원, 031-214-1600, 경기도 용인시 수지구 광교중앙로 320 (상현동)  3층 302호 ,127.0698739,37.2983673
322,김성우의원, 031-374-2509, 경기도 오산시 오산로 68 (갈곶동)  ,127.0693442,37.1327849
325,김승범가정의학과의원, 031-364-8119, 경기도 안산시 단원구 선삼로 21 (선부동)  1층 ,126.8156027,37.3448301
326,김승주소아청소년과의원, 032-675-0307, 경기도 부천시 소사로 791 (원종동)  ,126.8045339,37.5267551
329,김앤반소아청소년과의원, 031-733-1885, 경기도 성남시 중원구 산성대로 530 (은행동)  ,127.1646807,37.458019
332,김연종내과의원, 031-851-9860, 경기도 의정부시 용민로7번길 5 (용현동)  ,127.0795432,37.7345669
333,김영국소아청소년과의원, 031-204-7988, 경기도 수원시 영통구 영통로 509 (영통동)  ,127.0775104,37.2641671
336,김영희의원, 032-343-0636, 경기도 부천시 범안로 6 (괴안동)  ,126.8053327,37.4808212
337,김옥란내과의원, 02-898-6914, 경기도 광명시 오리로 381 (소하동)  2층 ,126.879305,37.4364637
338,김외과의원, 031-585-2200, 경기도 가평군 조종면 현창로 39 (김의과의원)  ,127.3481264,37.818295
341,김이비인후과의원, 031-668-6882, 경기도 평택시 관광특구로 19 (서정동)  3층 ,127.0609136,37.0672659
345,김정하이비인후과의원, 031-576-3137, 경기도 남양주시 와부읍 덕소로97번길 4 (중앙프라자)  302호 ,127.2127203,37.5855744
346,김정훈이비인후과의원, 031-274-8275, 경기도 용인시 기흥구 한보라1로 14 (보라동)  ,127.1095983,37.2535809
352,김진홍의원, 031-735-1811, 경기도 성남시 중원구 산성대로552번길 15 (은행동)  가동 208호 ,127.1706654,37.4598428
354,김철하소아청소년과의원, 031-593-9210, 경기도 남양주시 화도읍 마석중앙로 56-5 (금용빌딩)  3층 ,127.3060175,37.6524836
358,김포하나이비인후과의원, 031-981-7979, 경기도 김포시 김포한강1로 227 (운양동)  광장프라자 306호 ,126.6825794,37.6541506
359,김현미소아청소년과의원, 031-982-5412, 경기도 김포시 봉화로182번길 26 (북변동)  304호 ,126.7029777,37.6286086
360,김현소아청소년과의원, 031-755-4235, 경기도 성남시 중원구 제일로 37 (성남동)  2층 ,127.1365922,37.4303316
363,김희승내과의원, 031-432-5544, 경기도 시흥시 군서마을로 36 (정왕동)  2층 ,126.7478296,37.3452977
365,김희준가정의학과의원, 031-332-5972, 경기도 용인시 처인구 이동읍 백옥대로 626   김희준가정의학과의원 2층,127.2072286,37.1925793
367,꾸러기소아청소년과의원, 031-466-9475, 경기도 안양시 만안구 박달로 504 (박달동)  ,126.9086766,37.4024085
370,꿈나무소아청소년과의원, 031-503-2288, 경기도 시흥시 배곧3로 80 (정왕동)  405호 ,126.7290674,37.3705496
373,나눔가정의학과의원, 031-938-9962, 경기도 고양시 덕양구 행신로143번길 72-1 (행신동)  ,126.8313736,37.6226265
377,나무소아청소년과의원, 031-234-9116, 경기도 수원시 권선구 세권로 188 (권선동)  2층 ,127.0246939,37.2554045
378,나무정원여성병원, 031-859-1231, 경기도 양주시 평화로1489번길 19-11 (덕계동)  ,127.0485189,37.8227457
380,남사연합의원, 031-336-7561, 경기도 용인시 처인구 남사면 내기로 11   2층,127.1497758,37.114008
382,남양뉴타운외과의원, 031-366-7252, 경기도 화성시 남양읍 시청로 115 (2072-9)  2층 ,126.8263034,37.2007595
384,남양우리소아청소년과의원, 031-355-5657, 경기도 화성시 남양읍 남양성지로 135   3층 남양우리소아청소년과의원,126.8180948,37.2089737
386,남양주백병원, 031-572-3111, 경기도 남양주시 진접읍 해밀예당1로 30-25   2층~10층,127.1876278,37.7112828
393,노상준가정의원, 031-984-3014, 경기도 김포시 봉화로181번길 31-20 (감정동)  ,126.7008954,37.6262718
396,녹향의원, 031-310-5300, 경기도 시흥시 하중로 127 (하중동)  ,126.800415,37.3993353
397,누가가정의학과의원, 031-918-8121, 경기도 고양시 일산서구 탄중로 518 (일산동)  ,126.7693042,37.6903163
398,누가광명의원, 02-894-2376, 경기도 광명시 범안로 1045 (하안동)  3층 ,126.8788428,37.462423
401,누가의원, 031-419-4870, 경기도 안산시 상록구 각골로 70 (본오동)  ,126.8729426,37.2957581
403,누가의원, 032-655-9598, 경기도 부천시 심곡로 73 (심곡본동) ,126.7751398,37.47748
406,누리소아청소년과의원, 031-797-8255, 경기도 광주시 중앙로 101 (경안동)  3층 ,127.2584046,37.4088212
407,누리연합소아청소년과의원, 031-982-3993, 경기도 김포시 김포한강8로 163 (마산동)  한강스퀘어빌딩 3층 304호 ,126.6433899,37.6370239
408,누리이비인후과의원, 031-462-7575, 경기도 의왕시 부곡시장3길 3 (삼동)  ,126.9524568,37.3190061
409,뉴연세의원, 031-595-2389, 경기도 남양주시 화도읍 경춘로2248번길 15 (월산부영1단지)  ,127.3379484,37.6546399
411,늘사랑가정의학과의원, 031-919-7054, 경기도 고양시 일산동구 일산로 442 (정발산동)  2층 ,126.7779239,37.6736487
413,늘편한가정의학과의원, 031-214-0894, 경기도 수원시 영통구 중부대로246번길 51 (매탄동)  ,127.0418337,37.2727258
415,늘푸른가정의학과의원, 031-514-1300, 경기도 남양주시 화도읍 비룡로 341   2층,127.3038686,37.6814607
416,늘푸른소아과의원, 031-214-2142, 경기도 수원시 팔달구 중부대로143번길 29 (우만동)  ,127.0320314,37.279676
420,늘푸른의원, 031-584-1551, 경기도 가평군 설악면 신천중앙로 118   2층,127.4909875,37.6780301
425,능곡의원, 031-972-1112, 경기도 고양시 덕양구 지도로 105 (토당동)  ,126.823428,37.6264616
426,능골성모의원, 031-765-8275, 경기도 광주시 오포읍 오포로 129 (능골성모의원)  ,127.1802719,37.3444716
429,다나의원, 031-527-5300, 경기도 남양주시 오남읍 진건오남로 788   2층,127.2038852,37.6974852
430,다나이비인후과의원, 031-733-2586, 경기도 성남시 중원구 금상로 18 (상대원동)  4층 ,127.1597224,37.4375133
433,다니엘소아청소년과의원, 031-948-1035, 경기도 파주시 미래로 612 (와동동)  미봉프라자 402호 ,126.7513646,37.7318621
434,다사랑이비인후과의원, 02-804-0171, 경기도 광명시 하안로 289 (하안동)  2층 202호 ,126.8801898,37.4617057
436,다솔내과의원, 031-293-0971, 경기도 수원시 권선구 탑동로 9 (탑동)  2층 ,126.9749666,37.2696718
437,다솜가정의원, 032-682-9400, 경기도 부천시 역곡로490번길 108 (고강동)  ,126.8219444,37.5275849
441,다솜의원, 031-251-7855, 경기도 수원시 장안구 경수대로 930 (조원동) 4층 다솜의원,127.0087859,37.3027788
446,닥터마레산부인과의원, 02-898-0075, 경기도 광명시 소하로109번길 22 (소하동)  1~3층 ,126.8854899,37.4478065
448,단샘의원, 031-856-9057, 경기도 양주시 고읍로 10 (고읍동) ,127.0787809,37.8020077
449,단원병원, 031-8040-5903, 경기도 안산시 단원구 원포공원1로 20 (초지동) ,126.8132738,37.300366
453,대아의료재단한도병원, 031-8040-1114, 경기도 안산시 단원구 선부광장로 103 (선부동)  ,126.8076244,37.3340615
454,대야미중앙의원, 031-437-7500, 경기도 군포시 대야1로22번길 3 (대야미동)  201호 ,126.9174858,37.3276938
455,대진의료재단 분당제생병원, 031-779-0114, 경기도 성남시 분당구 서현로180번길 20 (서현동)  ,127.121778,37.3882086
460,더웰이비인후과의원, 031-213-3586, 경기도 수원시 영통구 인계로 220 (매탄동)  ,127.041392,37.2648839
462,더조은병원, 031-600-2234, 경기도 성남시 수정구 위례서일로 18 (창곡동)  4-11(6층일부)층 ,127.1378136,37.4651181
464,더편안병원, 031-957-2800, 경기도 파주시 청암로17번길 31 (목동동)  3~8층 ,126.7359063,37.7284902
465,도담소아청소년과의원, 031-338-0714, 경기도 용인시 처인구 명지로40번길 13 (역북동)  3층 302호 ,127.1869071,37.2323418
466,도당삼성의원, 032-678-8119, 경기도 부천시 삼작로 287 (도당동)  2층 ,126.7934083,37.5203048
467,도도스이비인후과의원, 031-431-6336, 경기도 시흥시 배곧3로 96 (정왕동)  4층 407호(일부)~408호 ,126.7302942,37.3695612
469,독일키즈의원, 031-753-0509, 경기도 성남시 수정구 시민로 227 (태평동)  1층 ,127.1405361,37.4480751
475,동백제일의원, 031-286-9886, 경기도 용인시 기흥구 언동로217번길 45-1 (중동) ,127.1487802,37.276917
476,동산연세소아청소년과의원, 02-381-7534, 경기도 고양시 덕양구 동산2로 1 (동산동)  203호 ,126.8861262,37.6448301
478,동아가정의원, 031-743-2194, 경기도 성남시 중원구 박석로33번길 13 (상대원동)  2층 ,127.164331,37.4358496
479,동안산병원, 031-410-1116, 경기도 안산시 상록구 월피로 88 (월피동) ,126.8529776,37.3358857
485,동탄메디삼육오의원, 031-377-7264, 경기도 화성시 동탄대로 489 (오산동)  307호 ,127.0982637,37.1973592
488,동탄시티병원, 031-8015-3333, 경기도 화성시 동탄지성로 113 (능동) ,127.0626243,37.2084782
490,동탄연세의원, 031-898-9595, 경기도 화성시 동탄원천로 382-46 (반월동)  ,127.0584085,37.2230229
492,동탄키즈웰소아청소년과의원, 031-376-6619, 경기도 화성시 동탄대로 198 (산척동)  드림타워 4층 406호 ,127.1073075,37.1721233
497,두리이비인후과의원, 031-334-2004, 경기도 용인시 처인구 명지로60번길 8-10 (역북동)  광장프라자 3층 2호 ,127.1878833,37.2316
501,두리이비인후과의원, 031-722-3777, 경기도 성남시 수정구 위례동로 141 (창곡동)  3층 ,127.1500709,37.4726432
505,두진웅가정의학과의원, 031-757-7582, 경기도 성남시 수정구 남문로 106 (태평동)  2층 ,127.1382833,37.4471644
506,둘이이비인후과의원, 031-227-0191, 경기도 화성시 봉담읍 동화길 93-2 (제이스프라자)  401호 ,126.9591611,37.2163415
507,드림모아의원, 031-222-7589, 경기도 화성시 봉담읍 효행로 278 (이마트)  ,126.9720972,37.2225045
510,드림소아청소년과의원, 031-353-7496, 경기도 화성시 향남읍 상신하길로298번길 7-1   3층 305호,126.9102809,37.114991
513,드림아이산부인과의원, 031-523-3333, 경기도 남양주시 진접읍 해밀예당1로 79   1-5층,127.1888155,37.7158144
516,드림이비인후과의원, 031-923-2277, 경기도 고양시 일산서구 가좌1로 57 (가좌동)  201호 ,126.718697,37.6871746
520,라라소아청소년과의원, 031-723-0055, 경기도 성남시 수정구 위례동로 141 (창곡동)  5층 ,127.1500709,37.4726432
521,라마즈산부인과의원, 031-618-9792, 경기도 평택시 중앙로 106 (합정동)  ,127.0946896,36.9931984
522,라온소아청소년과의원, 070-7733-5056, 경기도 시흥시 배곧4로 103 (정왕동)  대경프라자 5층 503호 ,126.734586,37.3738892
524,라임의원, 031-741-4777, 경기도 성남시 중원구 산성대로 522 (은행동)  2층 ,127.1640726,37.457293
529,류동균내과의원, 031-468-7786, 경기도 안양시 만안구 장내로 86 (안양동) ,126.9182696,37.3950565
535,마리나산부인과의원, 031-636-0552, 경기도 이천시 경충대로 2564 (중리동)  ,127.4481202,37.2750877
536,마리본산부인과의원, 031-551-2700, 경기도 구리시 건원대로 39-1 (인창동)  마리본산부인과(3층제외) ,127.1396677,37.6045307
538,마성호내과의원, 031-416-5537, 경기도 안산시 상록구 고목로3길 25 (본오동)  2층 ,126.8594853,37.2850312
541,마트소아청소년과의원, 031-657-8279, 경기도 안성시 공도읍 서동대로 4478 (롯데마트)  2층 ,127.1994737,37.0078548
542,마학기가정의학과의원, 032-652-8275, 경기도 부천시 장말로 290 (심곡동)  2층 ,126.7739954,37.4912894
551,맑은의원, 031-577-0300, 경기도 남양주시 와부읍 월문천로 33 (롯데마트)  2층 ,127.2140262,37.5846975
552,맑은이비인후과의원, 031-721-7535, 경기도 성남시 중원구 도촌남로 37 (도촌동)  403호.404호 ,127.1516719,37.4146218
557,매화가정의학과의원, 031-313-2202, 경기도 시흥시 매화1로 3 (매화동) ,126.8147311,37.4156123
558,메디모아소아청소년과의원, 031-295-2575, 경기도 수원시 권선구 금곡로102번길 20 (금곡동) ,126.941186,37.2733268
563,메디의원, 032-342-3114, 경기도 부천시 범안로 120 (범박동)  2층3층 ,126.8089262,37.4711434
567,메디피아산부인과의원, 031-595-8400, 경기도 남양주시 경춘로 1511 (호평동) ,127.2594017,37.655559
569,메리놀정형외과.가정의학과의원, 031-746-7457, 경기도 성남시 중원구 금상로 53 (상대원동)  2층 2호 ,127.1619848,37.44013
570,메리엘산부인과의원, 031-541-0470, 경기도 포천시 소흘읍 송우로 62 (송우웰빙타운))  (,127.1424492,37.8295818
574,명성의원, 031-407-4406, 경기도 안산시 상록구 안산대학로 108 (일동)  2층 ,126.8699207,37.3096832
576,명소아과의원, 031-638-1936, 경기도 이천시 부발읍 경충대로 2058   301호,127.491982,37.2489152
578,모아가정의학과의원, 032-655-4796, 경기도 부천시 장말로199번길 6-2 (중동)  2층 ,126.7641777,37.492997
579,모아산부인과의원, 031-674-7744, 경기도 안성시 중앙로 368 (석정동)  ,127.2676149,37.0077316
582,모현우리이비인후과의원, 031-334-0394, 경기도 용인시 처인구 모현면 외대로 6   2층,127.2501572,37.3371338
583,목감성모의원, 031-482-6965, 경기도 시흥시 수인로2421번길 109 (논곡동)  2층 ,126.8604957,37.3873461
587,무지개소아청소년과의원, 032-682-5520, 경기도 부천시 중동로 407 (삼정동)  ,126.7698986,37.5161881
589,무지개연합의원, 031-568-0511, 경기도 구리시 동구릉로136번길 57 (인창동)  2층 롯데마트구리점 ,127.140907,37.6131562
593,문소아청소년과의원, 031-334-7188, 경기도 용인시 처인구 포곡읍 포곡로 78-8 (대두빌딩)  202호 ,127.2140585,37.26739
595,문소아청소년과의원, 031-572-5724, 경기도 남양주시 진접읍 해밀예당1로 79-1   2층 202호,127.1885718,37.7159072
597,문환철내과의원, 031-948-7581, 경기도 파주시 조리읍 고봉로 1039 (302호))  (아트텔 3층,126.8083126,37.7438471
601,미래사랑소아청소년과의원, 031-756-7502, 경기도 성남시 수정구 산성대로 237-1 (신흥동)  ,127.1437367,37.4394557
609,미래연합의원, 031-315-4461, 경기도 시흥시 신현로38번길 20 (포동)  ,126.7843375,37.4072152
610,미래연합의원, 031-752-0410, 경기도 성남시 중원구 성남대로1148번길 2 (성남동)  4층 ,127.1295098,37.4322776
616,미소가정의원, 032-328-3454, 경기도 부천시 상이로 43 (상동) ,126.7437456,37.4926885
618,미소드림의원, 031-745-8575, 경기도 성남시 중원구 산성대로 352 (중앙동)  6층 ,127.1555424,37.4438006
619,미소래병원, 031-946-0202, 경기도 파주시 금정7길 29 (금촌동) ,126.7747625,37.75732
624,미즈아이산부인과의원, 032-347-3500, 경기도 부천시 경인로 522 (괴안동)  위드프러스타워 501호 ,126.8133417,37.4845751
626,미즈피아산부인과의원, 070-4916-7544, 경기도 안산시 상록구 샘골로 112 (본오동) ,126.8632023,37.2937737
627,민가정의원, 031-794-1731, 경기도 하남시 신장로 194 (덕풍동)  2층 ,127.1995568,37.5425526
628,민가정의학과의원, 031-293-0114, 경기도 수원시 권선구 탑동로3번길 13 (탑동)  2층 ,126.9744917,37.2688925
631,민소아청소년과의원, 031-572-0110, 경기도 구리시 갈매순환로 7 (갈매동)  에이스프라자 2층 2호 ,127.1117144,37.6259494
634,민이비인후과의원, 031-291-9897, 경기도 수원시 권선구 호매실로218번길 128 (호매실동)  3층 ,126.9610924,37.2657929
638,바이오이비인후과의원, 031-769-8575, 경기도 광주시 곤지암읍 곤지암로 4545,127.3417223,37.3496574
640,박건태이비인후과의원, 032-345-3968, 경기도 부천시 소안로 10 (소사본동)  4층 ,126.8011065,37.475715
641,박경란소아청소년과의원, 031-523-2005, 경기도 구리시 체육관로80번길 9 (수택동)  2층 ,127.1386082,37.5919464
642,박기서내과의원, 031-257-1296, 경기도 수원시 장안구 수성로 253 (정자동) ,127.000148,37.2897872
645,박달통합의원, 031-447-5350, 경기도 안양시 만안구 양화로 135 (박달동)  2층 ,126.9090795,37.4045895
646,박동건소아과의원, 032-667-7533, 경기도 부천시 장말로 198 (상동) ,126.7638749,37.4927434
651,박서울소아청소년과의원, 031-795-6664, 경기도 하남시 신장동로 162 (신장동)  2층 ,127.2231144,37.5411262
652,박소아과의원, 031-536-0195, 경기도 포천시 중앙로115번길 4 (신읍동)  ,127.2025301,37.8969272
654,박소아과의원, 031-862-2690, 경기도 동두천시 동광로 67-2 (생연동) ,127.0556804,37.908851
658,박소아청소년과의원, 031-593-3678, 경기도 남양주시 화도읍 수레로 1234-26 (창현신명상가)  205호 ,127.3041308,37.6474433
662,박승철내과의원, 031-438-1175, 경기도 안산시 상록구 부곡로 128 (부곡동)  2층 ,126.8638099,37.333163
663,박애의원, 031-315-4115, 경기도 시흥시 매화2로 3 (매화동)  ,126.8138532,37.4158996
664,박영부내과의원, 031-247-5032, 경기도 수원시 장안구 송정로 195 (조원동)  ,127.0174607,37.2994103
666,박인승소아청소년과의원, 032-342-7060, 경기도 부천시 은성로67번길 12 (소사본동) KCC스위첸아파트 상가 101호,126.7991641,37.4758647
668,박정금소아청소년과의원, 031-733-5811, 경기도 성남시 수정구 수정남로 298 (산성동)  1층 ,127.1512822,37.4550918
669,박종환의행복을드리는의원, 031-963-6100, 경기도 고양시 덕양구 호국로 851 (성사동)  2층 ,126.8405924,37.6608137
672,반내과의원, 031-554-3375, 경기도 구리시 동구릉로 91 (인창동)  ,127.1341322,37.6082657
675,밝은가정의원, 031-312-8300, 경기도 시흥시 삼미시장4길 8 (신천동)  3층 ,126.7839417,37.4392555
680,밤가시연세소아청소년과의원, 031-922-1517, 경기도 고양시 일산동구 일산로 452 (정발산동)  일산프라자 5층 502~503호 ,126.7769775,37.674077
681,방소아과의원, 031-426-8276, 경기도 의왕시 흥안대로434번길 86 (포일동)  ,126.9798032,37.3914838
685,백경훈소아청소년과의원, 031-864-3838, 경기도 양주시 평화로 1440 (덕계동)  302호 ,127.0470699,37.8191133
686,백내과의원, 031-455-7684, 경기도 안양시 동안구 경수대로 707 (호계동)  4층 ,126.9512096,37.3847457
687,백석중앙의원, 031-826-2800, 경기도 양주시 백석읍 꿈나무로 305 (동화아파트 상가 201~203호) ,126.9830409,37.7834848
691,베스트가정의학과의원, 032-677-7582, 경기도 부천시 소사로 706 (원종동)  2층 ,126.8051687,37.5186746
692,베스트산부인과의원, 031-269-8833, 경기도 수원시 장안구 만석로5번길 12-10 (천천동)  ,126.9830732,37.2954854
695,변종인소아청소년과의원, 032-343-4641, 경기도 부천시 경인로 216-1 (심곡본동)  ,126.7795419,37.4830904
696,변주원내과의원, 032-668-5275, 경기도 부천시 부천로 34 (심곡동)  2층 ,126.783728,37.4871718
699,별소아청소년과의원, 031-672-9607, 경기도 안성시 중앙로 252 (석정동)  2층 ,127.2568019,37.0130174
702,병점메디칼의원, 031-224-7102, 경기도 화성시 경기대로 1008 (병점동)  2층 ,127.0368578,37.2060546
704,보람의원, 02-381-3527, 경기도 고양시 덕양구 삼송로 183 (삼송동)  ,126.8941535,37.653694
708,보아스이비인후과의원, 031-901-1227, 경기도 고양시 일산동구 일산로 211 (마두동)  ,126.7893384,37.6549288
711,본오가정의학과의원, 031-501-0075, 경기도 안산시 상록구 선암로 43 (본오동)  ,126.8635773,37.2888553
713,봄봄소아청소년과의원, 032-677-7522, 경기도 부천시 소사로 680 (작동)  302호 ,126.8044001,37.5165985
714,봄빛병원, 031-380-7300, 경기도 안양시 동안구 평촌대로211번길 26 (호계동) ,126.9544881,37.3902317
716,봄소아과의원, 031-665-9735, 경기도 평택시 지산로 64 (지산동)  1층 ,127.0620654,37.0797155
718,봄소아청소년과의원, 031-223-6554, 경기도 화성시 봉담읍 참샘길 2   1층,126.9761693,37.2157685
720,봄소아청소년과의원, 031-573-7585, 경기도 남양주시 별내중앙로 49 (별내동)  2층 ,127.1236909,37.6468122
722,봄소아청소년과의원, 031-952-7570, 경기도 파주시 문산읍 당동2로 1 (304호))  (홈프라자 3층,126.785045,37.8677659
725,봄여성병원, 031-810-2222, 경기도 고양시 덕양구 중앙로 620 (화정동) ,126.8299416,37.6271988
727,봉봉가정의학과의원, 031-432-2520, 경기도 시흥시 죽율로 38 (죽율동)  상가동 2층 206호 ,126.7612839,37.3480821
730,부천메디홀스의원, 032-656-4114, 경기도 부천시 경인로110번길 18 (송내동) ,126.7675,37.4832494
733,부천소아청소년과의원, 032-326-3313, 경기도 부천시 소향로 239 (중동)  대야하이빌2차 303호 ,126.7743672,37.5008472
742,부천중앙의원, 032-652-2123, 경기도 부천시 원미로 144 (원미동) ,126.7917393,37.4952738
750,블루밍의원, 031-528-7280, 경기도 남양주시 진접읍 내각1로73번길 3 (백석빌딩)  2층 ,127.1647064,37.7045968
755,사랑드림내과의원, 031-438-8275, 경기도 안산시 상록구 도매시장로 41 (이동)  ,126.8595021,37.3105355
758,사랑의내과소아청소년과의원, 031-734-4430, 경기도 성남시 중원구 둔촌대로 381 (상대원동)  2층 ,127.1589998,37.433655
760,사랑이가득한소아과의원, 031-393-7005, 경기도 군포시 금산로 98 (산본동)  1층 ,126.9369339,37.3707212
761,산본가정의학과의원, 031-391-2015, 경기도 군포시 고산로677번길 40 (산본동)  203호 ,126.9306086,37.3728467
764,산본제일병원, 031-396-3301, 경기도 군포시 산본로 374 (산본동)  ,126.9311085,37.363648
765,산본제일의원, 031-397-8857, 경기도 군포시 고산로 704 (산본동)  2층 ,126.9361853,37.3722126
766,산성의원, 031-742-5030, 경기도 성남시 수정구 수정남로291번길 1 (산성동) ,127.1509907,37.4546432
767,삼성가정의학과의원, 031-534-7582, 경기도 포천시 영북면 영북로 189   2층,127.2741505,38.0910833
768,삼성그린소아과의원, 031-274-0035, 경기도 용인시 기흥구 동백중앙로 175 (중동)  ,127.154178,37.2699842
772,삼성드림소아청소년과의원, 02-2060-9400, 경기도 광명시 광복로 68 (철산동)  3층 303호 ,126.8659401,37.48994
775,삼성드림소아청소년과의원, 031-373-3988, 경기도 오산시 수목원로 458 (금암동)  3층 302호 ,127.0505166,37.1747417
776,삼성드림소아청소년과의원, 031-591-7569, 경기도 남양주시 천마산로 21 (호평동)  303-1호 ,127.247449,37.6635817
783,삼성본병원, 031-1522-7525, 경기도 오산시 북삼미로 175 (외삼미동)  A동 ,127.0614731,37.1909363
787,삼성연합의원.금성한의원, 031-496-0712, 경기도 시흥시 정왕신길로139번길 5 (정왕동)  102.107~108호 ,126.7343797,37.3539404
788,삼성우리이비인후과의원, 031-521-0300, 경기도 남양주시 와부읍 덕소로97번길 2 (동산빌딩)  601호 ,127.2124838,37.5854877
789,삼성의원, 031-762-2377, 경기도 광주시 퇴촌면 광동로 41   2층,127.307385,37.470761
791,삼성중앙내과의원, 031-217-0077, 경기도 수원시 영통구 인계로 216-1 (매탄동)  1층.2층 ,127.0411102,37.2648844
793,삼성키즈소아청소년과의원, 02-388-1119, 경기도 고양시 덕양구 동세로 86 (삼송동)  3층 ,126.8838077,37.6500929
798,삼성키즈소아청소년과의원, 031-692-7500, 경기도 안성시 공도읍 진사길 11 (광동아이비)  2층 ,127.1384701,36.9929077
799,삼성키즈소아청소년과의원, 031-693-9811, 경기도 용인시 기흥구 동백죽전대로527번길 98-2 (중동)  ,127.1443363,37.281094
801,삼성키즈소아청소년과의원, 032-678-1781, 경기도 부천시 여월로 60 (여월동)  ,126.8055958,37.5110234
802,삼성탑내과의원, 031-795-1472, 경기도 하남시 신장로 150 (덕풍동)  2층 ,127.2023254,37.5393376
805,삼성필의원, 031-316-7800, 경기도 시흥시 복지로 96 (대야동)  202호 ,126.7918044,37.4473014
806,삼성하나의원, 031-447-7582, 경기도 안양시 만안구 전파로 19 (안양동)  2층 ,126.9347793,37.3909061
814,상쾌한속내과의원, 031-313-7582, 경기도 시흥시 삼미시장1길 5 (신천동)  3층 ,126.7855416,37.4398056
816,상쾌한이비인후과의원, 031-291-5075, 경기도 수원시 권선구 금호로246번길 6 (탑동)  ,126.9767945,37.2754733
820,상쾌한이비인후과의원, 031-858-4276, 경기도 양주시 회정로 132 (덕정동)  401호 ,127.0679613,37.8372543
823,새론가정의학과의원, 031-222-3636, 경기도 수원시 권선구 세류로 32 (세류동)  302호 ,127.0073586,37.2618898
826,새롬연합의원, 031-528-8278, 경기도 남양주시 진접읍 해밀예당1로 298   2층,127.2081939,37.7247916
827,새롬이비인후과의원, 031-352-5593, 경기도 화성시 향남읍 발안로 116 (중앙프라자)  402호 ,126.9228503,37.1310923
829,새봄이비인후과의원, 031-8017-7373, 경기도 성남시 분당구 운중로 239 (판교동)  301호 ,127.0897997,37.3898401
830,새서울내과의원, 031-296-3475, 경기도 수원시 권선구 금호로 60 (호매실동)  ,126.9580417,37.2697721
836,샘소아청소년과의원, 031-461-0140, 경기도 의왕시 부곡시장4길 12 (삼동)  2층 ,126.9520278,37.3179062
840,서울가정의원, 031-744-7582, 경기도 성남시 수정구 산성대로 435 (단대동)  2층 ,127.1591439,37.4508242
842,서울가정의학과의원, 031-401-1275, 경기도 안산시 단원구 화정로 95 (와동) ,126.8221992,37.3330005
843,서울가정의학과의원, 031-416-1275, 경기도 수원시 권선구 당진로31번길 15 (당수동) ,126.939695,37.2918411
847,서울가정의학과의원, 031-937-8275, 경기도 파주시 문산읍 독서울1길 14 (선유프라자 2층) ,126.8045246,37.8658518
848,서울가정의학과의원, 032-345-4154, 경기도 부천시 부일로749번길 4 (역곡동)  ,126.812985,37.4865534
850,서울내과의원, 02-2689-8977, 경기도 광명시 광명로 831 (광명동)  2층 ,126.8514069,37.4736686
852,서울내과의원, 031-333-2237, 경기도 용인시 처인구 포곡읍 포곡로 97-497,127.2160959,37.2692586
853,서울내과의원, 031-511-5010, 경기도 남양주시 화도읍 먹갓로27번길 1 (해성빌딩)  2층 ,127.2743835,37.6565197
855,서울드림소아청소년과의원, 031-726-0210, 경기도 광주시 오포읍 머루숯길 88,127.1557857,37.3604572
858,서울명진내과의원, 031-8043-5688, 경기도 화성시 향남읍 상신하길로298번길 7-21   4층 407-410호호,126.9124754,37.1151722
862,서울산부인과의원, 031-798-0300, 경기도 광주시 중앙로 95-3 (역동)  5층 ,127.2586694,37.4080354
865,서울삼성내과의원, 031-889-7090, 경기도 용인시 기흥구 죽전로 46 (보정동)  ,127.1138751,37.3202658
866,서울삼성내과의원, 031-892-8275, 경기도 수원시 장안구 덕영대로407번길 34-22 (율전동) ,126.9686203,37.3029551
869,서울삼성의원, 031-214-3456, 경기도 수원시 영통구 동수원로 520 (매탄동)  ,127.0476023,37.2729987
873,서울성모의원, 031-407-1175, 경기도 안산시 상록구 구룡로 15 (일동)  2층 ,126.8673784,37.3119873
878,서울소아과의원, 031-976-9200, 경기도 고양시 일산서구 일중로 46 (일산동)  2층 ,126.7753976,37.6834603
879,서울소아청소년과의원, 031-203-6261, 경기도 수원시 영통구 매영로310번길 87 (영통동)  동보.신명아파트 상가동 2층 203호 ,127.0640896,37.2506309
882,서울소아청소년과의원, 031-423-2047, 경기도 의왕시 봇들로 40 (포일동)  ,126.9852801,37.3963801
884,서울소아청소년과의원, 031-654-7600, 경기도 안성시 공도읍 공도로 91 (성지프라자)  2층 ,127.1711036,37.0001048
886,서울소아청소년과의원, 031-798-0900, 경기도 광주시 중앙로 95-3 (역동)  ,127.2586694,37.4080354
887,서울소아청소년과의원, 031-841-3995, 경기도 양주시 삼숭로38번길 71 (삼숭동)  ,127.1051463,37.7967894
889,서울시티의원, 031-826-1110, 경기도 의정부시 범골로 39 (호원동)  2층 ,127.0390609,37.7283766
890,서울아산365소아청소년과의원, 031-637-0365, 경기도 이천시 남천로 82 (중리동)  3층 301호 ,127.4464038,37.2765498
896,서울어린이병원, 031-375-4197, 경기도 오산시 경기대로 209 (원동) ,127.0731005,37.1434245
900,서울여성의원, 031-233-4411, 경기도 화성시 경기대로1010번길 6 (병점동)  ,127.0370128,37.2061925
902,서울연합소아청소년과의원, 031-857-8474, 경기도 양주시 옥정동로 274 (옥정동)  302호 ,127.0990674,37.8314081
903,서울연합의원, 031-373-6558, 경기도 오산시 궐리사로 37 (궐동)  2층 ,127.0566896,37.1603709
905,서울연합의원, 031-571-5561, 경기도 남양주시 진접읍 금강로 1530-21530,127.192936,37.7268561
914,서울의원, 032-678-2323, 경기도 부천시 고리울로52번길 14 (고강동) ,126.8214193,37.5265177
916,서울이비인후과의원, 031-571-2630, 경기도 남양주시 진접읍 장현천로 28 (우경메디프라자)  501호 ,127.183807,37.7191977
918,서울중앙내과의원, 031-527-6223, 경기도 남양주시 별내중앙로 49 (별내동)  202호 ,127.1236909,37.6468122
919,서울중앙의원, 031-407-1014, 경기도 안산시 상록구 평안로1길 14 (사동)  2층 ,126.8478936,37.2834932
923,서울탑연합의원, 031-555-3375, 경기도 구리시 체육관로 140 (교문동)  일군타워 4층 ,127.1371195,37.59712
924,서울튼튼소아청소년과의원, 02-899-4093, 경기도 광명시 범안로 1049 (하안동)  7층 701호 ,126.8792893,37.462719
927,서울행복의원, 031-859-7582, 경기도 동두천시 지행로 51 (지행동)  4층 ,127.0530514,37.8927044
929,서정성세의원, 031-663-0010, 경기도 평택시 서정북로 75 (서정동)  ,127.0577249,37.0709439
932,서지영소아청소년과의원, 031-853-9555, 경기도 의정부시 오목로 215 (민락동)  3층 송림프라자 ,127.0990557,37.7455046
935,석수연합의원, 031-474-7575, 경기도 안양시 만안구 경수대로 1426 (석수동)  2층 ,126.9037159,37.4337329
936,선내과의원, 031-242-8275, 경기도 수원시 장안구 경수대로976번길 27 (송죽동)  ,127.0042876,37.3058979
938,선부고려소아과의원, 031-439-4378, 경기도 안산시 단원구 석수로5길 13 (선부동)  2층 ,126.8062277,37.3430085
939,선우내과의원, 031-542-6642, 경기도 포천시 소흘읍 솔모루로 66-4 (용빌딩)  2층 ,127.1456829,37.8276387
942,선진병원&#40;요양병원&#41;, 031-442-6655, 경기도 안양시 만안구 안양로 325-1 (안양동)  ,126.9192818,37.4007393
943,선한이웃가정의원, 031-734-7587, 경기도 성남시 수정구 수정로 59 (태평동)  2층 ,127.1271186,37.4397487
946,성남가정의원, 031-733-5940, 경기도 성남시 중원구 금상로 120-1 (상대원동) ,127.1683207,37.4423253
947,성남동산의원, 031-721-4311, 경기도 성남시 중원구 광명로 124 (성남동)  3층 ,127.1422669,37.4365984
948,성남중앙병원, 031-799-5300, 경기도 성남시 중원구 산성대로476번길 12 (금광동)  ,127.1619932,37.4528497
949,성모가정의원, 031-654-7511, 경기도 안성시 공도읍 진사길 23 (광동아이비타운)  2층 ,127.1390071,36.9922819
952,성모길내과의원, 02-2060-5069, 경기도 광명시 오리로 966-1 (광명동)  2층 ,126.8560146,37.4792323
953,성모내과의원, 031-298-7434, 경기도 화성시 봉담읍 동화길 91 (웅신아트프라자)  401~403호 ,126.958805,37.2165605
954,성모내과의원, 032-683-1606, 경기도 부천시 원종로119번길 90 (고강동)  ,126.8136611,37.5281001
955,성모다솜의원, 031-204-3033, 경기도 용인시 기흥구 예현로35번길 2 (서천동)  2층 201호 ,127.066672,37.2438531
956,성모베스트이비인후과의원, 031-544-8475, 경기도 포천시 소흘읍 솔모루로 55   6층,127.1445972,37.8273505
962,성모의원, 031-474-8050, 경기도 안양시 만안구 와룡로 34 (석수동)  ,126.8977214,37.4074098
963,성모의원, 031-863-2098, 경기도 양주시 평화로 1435 (덕계동)  ,127.045987,37.8190241
964,성모의원, 032-665-6975, 경기도 부천시 성주로 90 (송내동) ,126.7661763,37.4792848
966,성모플러스이비인후과의원, 031-227-8841, 경기도 수원시 권선구 삼천병마로1592번길 3 (오목천동)  ,126.9637278,37.2449651
969,성상민소아청소년과의원, 032-679-7297, 경기도 부천시 역곡로 478 (고강동)  ,126.8163603,37.5271833
970,성심가정의원, 031-671-3775, 경기도 안성시 금광면 종합운동장로 132 (아)상가)  2층 (홍익,127.3277449,37.0101461
971,성심가정의원, 032-665-5589, 경기도 부천시 경인로216번길 56 (심곡본동) ,126.7790153,37.4808697
972,성심내과의원, 031-292-1678, 경기도 수원시 권선구 세화로169번길 25 (서둔동)  ,126.991708,37.2667222
973,성심내과의원, 031-382-0875, 경기도 안양시 동안구 관악대로 169 (비산동)  2층 ,126.9428412,37.3991894
976,성재소아과의원, 031-563-2319, 경기도 구리시 경춘로 223 (인창동)  303호 ,127.1402087,37.6008955
977,세교드림소아청소년과의원, 031-378-7809, 경기도 오산시 내삼미로79번길 52 (수청동)  302호 ,127.065444,37.1695558
981,세란의원, 031-294-7557, 경기도 수원시 권선구 구운로 32 (구운동) ,126.9748687,37.2771977
983,세브란스소아청소년과의원, 031-462-7582, 경기도 의왕시 부곡중앙로 41 (삼동) ,126.9535345,37.3213122
989,세인트마리소아청소년과의원, 031-289-3100, 경기도 수원시 권선구 금곡로197번길 70 (금곡동)  1층 ,126.9539342,37.2754458
990,세인트마리여성병원, 031-289-3000, 경기도 수원시 권선구 금곡로197번길 70 (금곡동)  1~5층 ,126.9539342,37.2754458
992,세종여주병원, 031-880-7700, 경기도 여주시 청심로 47 (하동)  여주고려병원 ,127.6261149,37.3013655
994,세창의료재단우성여성병원, 031-412-3002, 경기도 안산시 단원구 고잔로 58-10 (고잔동)  ,126.8320124,37.3184583
995,세화병원, 031-437-0114, 경기도 안산시 상록구 용신로 355 (본오동)  ,126.8615342,37.3020559
996,센텀병원, 031-820-9210, 경기도 의정부시 호국로1519번길 2-29 (금오동)  지하2층 ~지상6층 ,127.07105,37.753899
999,소담소아청소년과의원, 031-206-2280, 경기도 화성시 영통로27번길 35 (반월동)  ,127.0604973,37.2318055
1002,소망가정의학과의원, 031-856-2200, 경기도 의정부시 능곡로 62 (신곡동)  2층 ,127.0621243,37.7430996
1004,소망연세의원, 02-2681-0135, 경기도 광명시 광일로 45-1 (광명동)  2-3층 ,126.8617738,37.4853547
1005,소망의원, 031-474-7500, 경기도 안양시 만안구 경수대로 1173 (안양동)  ,126.9174742,37.4151386
1007,소망의원, 031-691-7599, 경기도 평택시 팽성읍 안정로39번길 3131,127.0466631,36.9609648
1016,손소아청소년과의원, 031-883-9851, 경기도 여주시 현암3길 1 (현암동)  ,127.6416971,37.3077744
1025,송원영소아청소년과의원, 031-443-1994, 경기도 안양시 만안구 양화로 36 (안양동)  ,126.9140825,37.3969254
1026,송정한빛의원, 031-633-4377, 경기도 이천시 증신로291번길 106 (송정동)  2층 ,127.4346859,37.2956867
1031,수가정의원, 031-429-0878, 경기도 의왕시 왕곡로 22 (왕곡동)  201호 ,126.9767889,37.3464907
1032,수가정의학과의원, 031-278-1310, 경기도 수원시 장안구 정자천로13번길 17 (천천동)  TQ빌딩 2층 ,126.9785199,37.2896035
1033,수가정의학과의원, 031-477-9960, 경기도 군포시 고산로151번길 25 (당정동)  2층 ,126.9562631,37.3467439
1034,수가정의학과의원, 031-503-8010, 경기도 안산시 상록구 광덕산3로 43 (월피동)  1층 ,126.8463238,37.3349016
1035,수가정의학과의원, 031-858-9998, 경기도 동두천시 삼육사로 1007 (생연동)  2층 ,127.0617763,37.899436
1036,수레실삼성의원, 031-8022-8288, 경기도 광주시 오포읍 수레실길 3-2   3층,127.1660714,37.3508913
1037,수메디컬의원, 031-642-5119, 경기도 이천시 장호원읍 장감로 64 (장호원농협)  3층 ,127.6298032,37.1167339
1040,수소아청소년과의원, 031-656-7557, 경기도 평택시 서재1길 64  (동삭동) 301호,127.1007278,37.0120576
1041,수소아청소년과의원, 031-881-5522, 경기도 여주시 세종로 23 (홍문동)  ,127.6369277,37.2957302
1042,수암강서의원, 031-485-2754, 경기도 안산시 상록구 수인로 2012 (수암동)  2층 ,126.8760782,37.3628367
1043,수여성병원, 031-8012-7000, 경기도 수원시 권선구 서부로 1592 (고색동)  ,126.9762838,37.2511721
1044,수원제일산부인과의원, 031-253-3011, 경기도 수원시 팔달구 덕영대로 691-12 (화서동)  ,126.9906955,37.2851193
1045,수원중앙내과의원, 031-246-8008, 경기도 수원시 장안구 수성로 356 (영화동)  ,127.0108874,37.2929778
1048,수이비인후과의원, 031-881-5522, 경기도 여주시 세종로 23 (홍문동)  2층 ,127.6369277,37.2957302
1049,수지21세기의원, 031-272-8995, 경기도 용인시 수지구 수지로 62 (상현동)  2층 ,127.0762027,37.3084567
1052,순천의료재단 정병원, 031-750-6000, 경기도 성남시 수정구 수정로 76 (수진동)  지하3~10층 ,127.1290055,37.4398634
1053,순천향대학교부속부천병원, 032-621-5413, 경기도 부천시 조마루로 170 (중동)  ,126.7629514,37.4986043
1056,숲속샘터의원, 031-874-7800, 경기도 의정부시 녹양로 79 (녹양동)  ,127.0340436,37.7579557
1058,쉬즈메디병원, 031-231-7300, 경기도 수원시 팔달구 경수대로 535 쉬즈메디병원 (인계동 수원 쉬즈메디산부인과),127.0288095,37.2737664
1065,승소아청소년과의원, 031-846-7166, 경기도 의정부시 오목로18번길 4 (용현동)  ,127.0853984,37.732295
1066,시온여성병원, 031-201-0796, 경기도 수원시 영통구 반달로 107 (영통동)  ,127.076593,37.2526892
1067,시원이비인후과의원, 031-745-7582, 경기도 성남시 수정구 산성대로 439 (단대동)  3층 302호 ,127.1592688,37.4512468
1068,시원한이비인후과의원, 031-591-8722, 경기도 남양주시 늘을1로 286 (호평동)  1층 102호 ,127.2549263,37.6555941
1070,시화병원, 031-432-2600, 경기도 시흥시 옥구천서로 337 (정왕동) ,126.7245975,37.3529459
1071,시흥센트럴이비인후과의원, 031-364-8225, 경기도 시흥시 수인로 3362 (신천동)  태종빌딩 5층 일부호 ,126.7854786,37.4406712
1074,신구의원, 031-745-5678, 경기도 성남시 중원구 광명로 336 (금광동)  3층 ,127.1631873,37.4454795
1082,신여성병원, 031-879-3800, 경기도 의정부시 시민로 50 (의정부동)  ,127.0405931,37.7379446
1083,신영통삼성내과의원, 031-273-0012, 경기도 수원시 영통구 영통로 136 (망포동)  센트럴타워 401호 ,127.0563524,37.2395134
1085,신중동의원, 032-325-8998, 경기도 부천시 중동로 326 (중동)  201호 ,126.7699886,37.5087572
1086,신천제일의원, 031-315-3578, 경기도 시흥시 신천3길 59 (신천동)  2층 ,126.7796209,37.4385853
1087,신태식소아청소년과의원, 031-759-5275, 경기도 성남시 중원구 둔촌대로 274 (하대원동)  1층 127호 ,127.14875,37.4288929
1088,심욱섭소아과의원, 031-963-1823, 경기도 고양시 덕양구 마상로154번길 68 (성사동)  2층 ,126.8369603,37.6564698
1090,심종걸내과의원, 031-257-1670, 경기도 수원시 장안구 경수대로 1020 (송죽동)  ,127.0004979,37.3069507
1098,아름소아청소년과의원, 031-766-5305, 경기도 광주시 중앙로 184 (송정동) ,127.2570722,37.4159241
1099,아빠곰소아청소년과의원, 031-571-1275, 경기도 남양주시 오남읍 진건오남로 813   2층,127.201899,37.6990014
1100,아빠랑소아청소년과의원, 031-684-8133, 경기도 평택시 청북읍 안청로 346 (ACEPLAZA))  203호 (에이스플라자,126.9155054,37.0186888
1101,아빠맘소아청소년과의원, 031-576-8275, 경기도 남양주시 와부읍 덕소로97번길 15-3 (동화프라자)  3층 ,127.2137229,37.586206
1103,아산드림가정의학과의원, 031-223-6950, 경기도 수원시 팔달구 권광로 208 (인계동)  인송빌딩 302호 ,127.0339442,37.2658735
1105,아산참조은의원, 031-258-3630, 경기도 수원시 장안구 파장로68번길 34 (파장동)  ,126.9927266,37.3074025
1106,아산탑내과의원, 031-294-5400, 경기도 수원시 권선구 금호로 226 (탑동)  3층 ,126.9748832,37.2751657
1114,아이맘산부인과의원, 031-663-3510, 경기도 평택시 이충로 113 (이충동)  ,127.0643025,37.0641346
1119,아이비의원, 031-748-7582, 경기도 성남시 중원구 자혜로 40 (금광동)  2층 ,127.1639298,37.4503034
1123,아이사랑소아청소년과의원, 032-343-8555, 경기도 부천시 옥길로 123 (옥길동)  센타프라자 502호 ,126.8224905,37.4679945
1126,아이산의원, 031-929-3152, 경기도 고양시 일산서구 덕이로 10-6 (덕이동)  1층 ,126.758322,37.6902432
1127,아이샘소아청소년과의원, 032-343-5275, 경기도 부천시 역곡로 30 (역곡동)  401호 ,126.8107638,37.4879625
1136,아이웰봄 소아청소년과의원, 031-206-1119, 경기도 용인시 기흥구 서천로 121 (서천동)  ,127.0727467,37.2371531
1137,아이웰빙의원, 031-797-0306, 경기도 광주시 고불로 44 (중대동)  ,127.2330446,37.3935943
1138,아이웰소아청소년과의원, 031-353-4005, 경기도 화성시 향남읍 발안로 116 (중앙프라자)  406호 ,126.9228503,37.1310923
1141,아이튼튼소아과의원, 032-672-8119, 경기도 부천시 소사로 754 (원종동)  2층 ,126.8051663,37.5232824
1143,아주대학교병원, 031-219-5114, 경기도 수원시 영통구 월드컵로 164 (원천동) ,127.0476725,37.2793924
1145,아주소아과의원, 031-251-7036, 경기도 수원시 팔달구 동말로 71 (화서동)  ,127.0018615,37.2789628
1146,아주의원, 031-663-2041, 경기도 평택시 송탄로40번길 67 (이충동)  ,127.0580317,37.0514008
1150,안산윤내과의원, 031-487-8072, 경기도 안산시 단원구 초지동로 35 (초지동)  2층 ,126.8165665,37.3070168
1151,안산의료복지사회적협동조합새안산상록의원, 031-401-7577, 경기도 안산시 상록구 석호로 292 (본오동)  2층 ,126.8631112,37.2933492
1154,안성성모병원, 031-675-6007, 경기도 안성시 시장길 58 (서인동)  ,127.2709213,37.0062179
1155,안성연세의원, 031-653-5579, 경기도 안성시 공도읍 공도로 132 (골드일번가)  3층 ,127.1747889,37.0012667
1157,안성의료복지사회적협동조합우리동네의원, 031-671-9157, 경기도 안성시 대학로 69 (당왕동)  ,127.2662874,37.0144777
1161,안양세종의원, 031-472-9391, 경기도 안양시 만안구 충훈로 83 (석수동)  ,126.8989644,37.4074554
1163,안중아이맘소아청소년과의원, 031-684-6384, 경기도 평택시 안중읍 안현로서6길 48   2층,126.9241232,36.98481
1165,애플소아청소년과의원, 031-707-1756, 경기도 성남시 분당구 성남대로779번길 50 (이매동)  MDG 1층 ,127.1230127,37.3994866
1166,애플소아청소년과의원, 031-985-8275, 경기도 김포시 고촌읍 인향로24번길 78   1층,126.7677116,37.6002037
1169,양곡바른의원, 031-8049-3994, 경기도 김포시 양촌읍 양곡1로 65   양곡프라자빌딩 2층,126.622996,37.6563059
1171,양수다정의원, 031-771-7581, 경기도 양평군 양서면 양수로 147   2층,127.3197676,37.5440498
1173,양이비인후과의원, 032-348-5050, 경기도 부천시 경인로 511 (괴안동)  501호 ,126.8119075,37.4846998
1174,양정분산부인과의원, 031-635-9316, 경기도 이천시 이섭대천로 1186 (중리동)  ,127.4471975,37.2762136
1179,양지현소아청소년과의원, 031-535-7891, 경기도 포천시 중앙로 73 (신읍동) ,127.1998949,37.8935317
1181,엄마마음소아청소년과의원, 031-271-8275, 경기도 수원시 장안구 만석로19번길 11-3 (천천동)  ,126.9836426,37.2954232
1183,에덴메디여성병원, 031-222-3535, 경기도 수원시 권선구 동수원로 220 (권선동)  ,127.0340258,37.2493534
1186,에스알세란의원, 031-553-8217, 경기도 구리시 이문안로 80 (수택동)  2층 ,127.140316,37.5919873
1190,엔젤메디칼의원, 031-471-6424, 경기도 안양시 만안구 충훈로 87 (석수동)  ,126.8987452,37.4075279
1196,연세가정의원, 031-668-6231, 경기도 평택시 관광특구로 37 (서정동)  3층 ,127.0630282,37.0670745
1197,연세가정의원, 031-769-8279, 경기도 광주시 오포읍 마루들길 216   3층,127.2554109,37.3780153
1198,연세가정의원, 031-965-4268, 경기도 고양시 덕양구 은빛로29번길 28 (화정동)  ,126.8316611,37.6392648
1199,연세가정의원, 031-982-7582, 경기도 김포시 풍무로 2 (풍무동)  ,126.7219655,37.5963039
1201,연세가정의학과의원, 02-2684-7484, 경기도 광명시 광명로 892 (광명동)  2층 ,126.854349,37.4785245
1204,연세가정의학과의원, 031-419-7286, 경기도 안산시 상록구 본삼로 38 (본오동)  월드아파트상가3동 202호 ,126.8641817,37.3007371
1206,연세가정의학과의원, 031-511-0697, 경기도 남양주시 화도읍 수레로1233번길 11 (경향아파트상가)  203~205호 ,127.3007878,37.646541
1208,연세가정의학과의원, 032-666-0739, 경기도 부천시 부흥로 222 (중동) ,126.7670965,37.4956124
1209,연세김내과의원, 031-873-0333, 경기도 의정부시 가능로 97 (가능동)  2층 ,127.0420412,37.7469668
1213,연세내과의원, 031-294-9797, 경기도 수원시 장안구 서부로 2123 (율전동)  ,126.9709045,37.2981219
1218,연세누리소아청소년과의원, 031-979-5145, 경기도 고양시 덕양구 중앙로 628 (화정동)  3층 303호 ,126.8289066,37.6275125
1222,연세대학교 의과대학 용인세브란스종합병원, 031-331-8888, 경기도 용인시 처인구 금학로 225 (역북동) ,127.1887559,37.2390654
1225,연세류내과의원, 031-241-2171, 경기도 수원시 장안구 송원로 81 (조원동)  203호 ,127.0092289,37.3021367
1226,연세마리소아청소년과의원, 031-204-5705, 경기도 수원시 영통구 영통로153번길 98 (망포동) 303호,127.0499935,37.241386
1230,연세미담의원, 031-796-5522, 경기도 하남시 하남대로 837 (덕풍동)  남도빌딩 2층 ,127.2048276,37.5423939
1237,연세본소아청소년과의원, 031-511-9993, 경기도 남양주시 화도읍 비룡로 58 (성훈빌딩)  502호 ,127.3019933,37.6572203
1248,연세세브란스의원, 031-242-5440, 경기도 수원시 장안구 창훈로52번길 2 (연무동)  ,127.0302712,37.2970216
1253,연세소아과의원, 031-444-0377, 경기도 안양시 동안구 관악대로 129 (비산동)  ,126.9384246,37.3992053
1254,연세소아과의원, 031-796-8275, 경기도 하남시 신장로 152 (덕풍동)  3층 A호 ,127.2022073,37.5395298
1257,연세소아청소년과의원, 031-298-8857, 경기도 수원시 권선구 호매실로218번길 126 (호매실동)  3층 ,126.9608938,37.2660935
1258,연세소아청소년과의원, 031-763-6490, 경기도 광주시 태봉로 51 (태전동)  3층 ,127.2296301,37.3888072
1260,연세손소아청소년과의원, 031-798-3066, 경기도 광주시 오포읍 양벌로 208208,127.2538943,37.3784285
1261,연세신영의원, 031-759-4292, 경기도 성남시 수정구 복정로 83 (복정동)  3층 ,127.1265468,37.4604032
1264,연세아이맘소아청소년과의원, 031-731-0088, 경기도 성남시 중원구 은이로5번길 1 (은행동)  2층 ,127.164812,37.4579427
1265,연세아이웰소아청소년과의원, 031-225-8677, 경기도 수원시 권선구 동수원로 232 (권선동)  3층 ,127.03469,37.2502678
1266,연세아이웰의원, 031-225-8677, 경기도 수원시 권선구 동수원로 232 (권선동)  3층 ,127.03469,37.2502678
1268,연세엘소아청소년과의원, 031-414-1010, 경기도 시흥시 목감남서로 9-19 (조남동)  3층 303호 ,126.8526946,37.3777687
1269,연세예소아청소년과의원, 031-886-1208, 경기도 여주시 세종로 145-7 (홍문동)  203호 ,127.635657,37.2853611
1275,연세웰소아청소년과의원, 031-796-8705, 경기도 하남시 덕풍북로 259 (덕풍동)  1층 ,127.2100607,37.5480141
1280,연세이비인후과의원, 031-313-1991, 경기도 시흥시 삼미시장1길 13-1 (신천동)  2층 ,126.784641,37.4402907
1284,연세이비인후과의원, 032-614-2288, 경기도 부천시 경인로 217 (심곡본동)  3층 일부호 ,126.7798502,37.4835236
1285,연세자연내과의원, 032-342-7500, 경기도 부천시 범안로 221 (옥길동)  옥길헤리움타운 201호 ,126.8127217,37.4626461
1288,연세제일의원, 031-664-7577, 경기도 평택시 탄현로 320 (지산동) ,127.055865,37.0808357
1297,연세키즈의원, 031-757-0075, 경기도 성남시 수정구 수정로 205 (태평동)  ,127.142523,37.4444037
1302,연세푸르른소아청소년과의원, 031-772-0173, 경기도 양평군 양평읍 역전길 24 (오성프라자)  401호 ,127.4910563,37.4922364
1305,연세프렌즈소아청소년과의원, 031-755-5585, 경기도 성남시 수정구 수정로 179-1 (태평동)  2층 ,127.1398169,37.4435697
1307,연세한사랑의원, 031-233-0975, 경기도 수원시 권선구 권선로 532 (세류동)  2층 ,127.0096566,37.2631489
1311,연세허브가정의학과의원, 031-647-6090, 경기도 평택시 평택5로 191 (비전동)  3층 ,127.1028147,36.9964691
1312,연소아청소년과의원, 070-4200-2020, 경기도 안양시 동안구 관악대로 387 (관양동)  201호 ,126.9658355,37.4049339
1321,열린의원, 031-296-7579, 경기도 수원시 권선구 삼천병마로 1581 (오목천동)  ,126.9633473,37.2438686
1322,열린이비인후과의원, 031-261-5075, 경기도 용인시 수지구 수지로 124 (성복동)  성복스퀘어/근린생활시설 306호~308호 ,127.0798272,37.312657
1323,열린이비인후과의원, 031-318-7275, 경기도 시흥시 월곶중앙로70번길 3 (월곶동)  1층 117호 ,126.7381645,37.3896195
1325,열린이비인후과의원, 031-754-7979, 경기도 성남시 중원구 양현로 469 (여수동)  402호 ,127.13438,37.4169846
1327,염광의원, 031-572-2222, 경기도 남양주시 퇴계원면 퇴계원로 117117,127.1436174,37.6566335
1329,영통성모이비인후과의원, 031-206-3434, 경기도 수원시 영통구 덕영대로 1525 (영통동)  4층 ,127.0578004,37.2462455
1331,영통연세가정의학과의원, 031-206-7510, 경기도 수원시 영통구 영통로90번길 4-2 (망포동) ,127.0600875,37.2373937
1340,예일산부인과의원, 031-656-3885, 경기도 평택시 중앙로 146-1 (합정동)  ,127.0991285,36.9921008
1347,오산한국병원, 031-379-8300, 경기도 오산시 밀머리로1번길 16 (원동)  ,127.0755994,37.1413897
1352,오월희망의원, 031-225-7777, 경기도 수원시 권선구 경수대로 358 (권선동)  ,127.0234255,37.2583243
1355,오즈이비인후과의원, 031-529-7511, 경기도 남양주시 진접읍 해밀예당3로 60 (호평프라자)  301호 ,127.1983414,37.7151744
1356,오창수소아청소년과의원, 031-472-6651, 경기도 안양시 만안구 연현로79번길 19 (석수동)  2층 203호 ,126.9014259,37.4309991
1359,온누리병원, 031-412-2202, 경기도 안산시 단원구 선부로 201 (선부동) ,126.817513,37.341815
1360,온누리소아청소년과의원, 031-733-7119, 경기도 성남시 중원구 금상로 61 (금광동)  2층 ,127.162586,37.4407802
1362,와우맘소아청소년과의원, 031-222-8210, 경기도 화성시 봉담읍 와우로73번길 6   태천센타,126.9742394,37.2140786
1364,용문의원, 031-771-5282, 경기도 양평군 용문면 용문로 381   2층,127.5953287,37.486049
1366,용인제일산부인과의원, 031-8031-0200, 경기도 용인시 처인구 중부대로 1347 (김량장동)  ,127.194553,37.2352777
1367,용인하나365의원, 031-526-1365, 경기도 용인시 처인구 명지로60번길 8-4 (역북동)  베르뉴스퀘어 3층 ,127.1877646,37.2309491
1369,우리가정의원, 031-323-0923, 경기도 용인시 처인구 금령로85번길 1 (김량장동) ,127.2056784,37.2355008
1375,우리내과의원, 031-252-7510, 경기도 수원시 장안구 조원로 91 (조원동)  ,127.0155722,37.3009702
1376,우리내과의원, 031-572-8275, 경기도 남양주시 퇴계원면 퇴계원로 9393,127.1439731,37.654904
1377,우리두리소아과의원, 031-633-6250, 경기도 이천시 영창로 223 (창전동) ,127.4476076,37.280959
1378,우리들가정의원, 032-342-0147, 경기도 부천시 지봉로121번길 6 (역곡동)  202호 ,126.8125884,37.4889018
1380,우리들가족의원, 031-407-7771, 경기도 안산시 단원구 민속공원로 81 (고잔동)  2층 ,126.8386089,37.3127321
1383,우리들소아과의원, 031-485-4855, 경기도 안산시 단원구 와동로 4  (와동) 2층,126.8268312,37.3312877
1386,우리들소아청소년과의원, 031-654-6700, 경기도 안성시 공도읍 서동대로 4081 (주은풍림상가2층)  ,127.1597072,36.9981375
1387,우리들소아청소년과의원, 032-651-5223, 경기도 부천시 조종로 45-4 (원미동)  ,126.7899618,37.4929192
1388,우리들여성산부인과의원, 031-768-7535, 경기도 광주시 중앙로 101 (경안동)  8층 ,127.2584046,37.4088212
1397,우리맘소아청소년과의원, 031-247-3421, 경기도 수원시 팔달구 동말로 83 (화서동)  ,127.0033596,37.2789682
1399,우리소아과의원, 031-318-0303, 경기도 시흥시 은행로 149 (은행동)  302호 ,126.7992461,37.4444225
1400,우리소아청소년과의원, 031-269-7588, 경기도 수원시 장안구 대평로 86 (정자동)  ,126.9932632,37.2959438
1402,우리소아청소년과의원, 031-426-8120, 경기도 의왕시 안양판교로 213 (청계동) ,126.9950153,37.3897502
1415,우리연세소아청소년과의원, 031-394-0009, 경기도 군포시 금산로 102 (산본동)  2층 ,126.9367129,37.3710867
1416,우리연세이비인후과의원, 031-952-7515, 경기도 파주시 문산읍 방촌로 1721 (우리메디컬프라자)  202호 ,126.7846014,37.8664726
1418,우리의원, 031-376-6511, 경기도 오산시 오산로 349 (궐동)  ,127.0668767,37.1578769
1420,우리의원, 031-821-0300, 경기도 양주시 부흥로 1896 (광사동)  ,127.0749556,37.7918179
1422,우리이비인후과의원, 031-772-3356, 경기도 양평군 양평읍 시민로 37   3층,127.4957193,37.4905499
1423,우리이비인후과의원, 031-838-3131, 경기도 남양주시 별내면 청학로중앙길 15 (주공프라자)  202호 ,127.1178895,37.7086903
1424,우리이비인후과의원, 031-941-5011, 경기도 파주시 금빛로 24-28 (금촌동)  ,126.7683281,37.7516261
1425,우리중앙의원, 031-574-7588, 경기도 남양주시 오남읍 진건오남로 517   2층,127.2096259,37.6801407
1428,우먼플러스산부인과의원, 031-248-8100, 경기도 수원시 장안구 경수대로 892 (조원동) ,127.0118618,37.299895
1429,우먼피아여성병원, 031-853-7500, 경기도 의정부시 청사로5번길 16 (신곡동)  ,127.0701375,37.7488596
1430,우먼필산부인과의원, 031-378-5950, 경기도 오산시 대원로 34 (원동) ,127.0722594,37.1461544
1431,우인의원, 031-445-6542, 경기도 안양시 만안구 병목안로 127 (안양동)  2층 ,126.9096427,37.3924081
1433,운정이든소아청소년과의원, 032-671-0036, 경기도 파주시 교하로159번길 21 (목동동)  트윈프라자1 203호 ,126.7390278,37.7232132
1434,원광대학교의과대학산본병원, 031-390-2300, 경기도 군포시 산본로 321 (산본동) ,126.9335932,37.3594231
1439,웰봄소아청소년과의원, 031-275-3314, 경기도 용인시 기흥구 동백중앙로 283 (중동)  골드프라자 A동 3층 301호 ,127.1533804,37.2779689
1441,웰봄소아청소년과의원, 031-353-1299, 경기도 화성시 향남읍 행정중앙1로 14 (JS프라자)  203호 ,126.9160112,37.1260519
1445,위내과의원, 031-419-8275, 경기도 안산시 상록구 본오로 124 (본오동)  2층 ,126.8668325,37.2960621
1451,위례상쾌한이비인후과의원, 031-8023-5588, 경기도 성남시 수정구 위례동로 141 (창곡동)  5층 505호 ,127.1500709,37.4726432
1456,위소아청소년과의원, 031-764-7582, 경기도 광주시 중앙로 108 (경안동)  4층 ,127.258658,37.4094163
1465,유소아청소년과의원, 032-675-8572, 경기도 부천시 역곡로481번길 15 (고강동)  ,126.8152606,37.5278026
1466,유수정소아청소년과의원, 031-272-2016, 경기도 용인시 수지구 수지로342번길 11 (풍덕천동)  302호 ,127.0956956,37.3273711
1467,유종길내과의원, 031-765-6700, 경기도 광주시 초월읍 경충대로 1254   2층,127.288097,37.3868631
1470,윤가정의학과의원, 031-205-2657, 경기도 수원시 영통구 매영로310번길 12 (영통동) ,127.0658336,37.2543887
1471,윤가정의학과의원, 031-915-0701, 경기도 고양시 일산서구 일산로 538 (일산동)  202호 ,126.7684389,37.6777414
1473,윤내과의원, 031-222-2180, 경기도 화성시 효행로265번길 14 (기안동)  ,126.9737923,37.224748
1474,윤내과의원, 031-555-8474, 경기도 구리시 이문안로 82 (수택동)  ,127.1406406,37.5919
1478,윤서병원, 031-553-6650, 경기도 구리시 건원대로 47 (인창동)  ,127.1395545,37.6052234
1479,윤소아과의원, 031-671-0130, 경기도 안성시 중앙로 358 (석정동)  ,127.2664677,37.0080069
1483,윤호주소아청소년과의원, 031-239-2535, 경기도 수원시 권선구 정조로 567 (세류동) ,127.0124767,37.2596907
1484,으뜸가정의학과의원, 031-272-8275, 경기도 용인시 수지구 동천로 34 (동천동)  3층 ,127.0992832,37.3408953
1485,은가정의학과의원, 031-247-1561, 경기도 수원시 팔달구 세지로 393 (우만동)  ,127.0282092,37.2851189
1487,의료법인 갈렌의료재단 박병원, 031-666-2600, 경기도 평택시 송탄로 33 (장당동)  ,127.057003,37.048256
1488,의료법인 녹산의료재단동수원병원, 031-210-0114, 경기도 수원시 팔달구 중부대로 165 (우만동)  ,127.0344741,37.2781302
1489,의료법인 녹향의료재단 신천연합병원, 031-310-6300, 경기도 시흥시 복지로 57 (대야동)  ,126.7894932,37.4445152
1490,의료법인 박애의료재단 박애병원, 031-652-2121, 경기도 평택시 평택2로20번길 3 (평택동) ,127.0890776,36.9930388
1492,의료법인 양진의료재단 평택성모병원, 031-1800-8800, 경기도 평택시 평택로 284 (세교동) ,127.0743628,37.0083974
1493,의료법인 은혜와감사의료재단 향남스마트병원, 031-233-9114, 경기도 화성시 향남읍 상신하길로298번길 11   8~10층,126.9110534,37.1147838
1496,의료법인메디피아제2의원, 031-730-7721, 경기도 성남시 분당구 중앙공원로40번길 32 (서현동) ,127.1320437,37.3786904
1497,의료법인명지의료재단명지병원, 031-810-5114, 경기도 고양시 덕양구 화수로14번길 55 (화정동) ,126.8309488,37.6421297
1498,의료법인백송의료재단 굿모닝병원, 031-5182-7700, 경기도 평택시 중앙로 338 (합정동)  ,127.1204114,36.9906277
1499,의료법인분도의료재단성모의원, 031-373-5454, 경기도 오산시 성호대로 73 (오산동)  ,127.0696219,37.1494656
1500,의료법인상운의료재단동탄제일병원, 031-8015-9999, 경기도 화성시 삼성1로 144-6 (석우동) ,127.078515,37.2164558
1501,의료법인서전의료재단한사랑병원, 031-501-7777, 경기도 안산시 상록구 광덕1로 345 (이동) ,126.8484449,37.3070834
1502,의료법인양진의료재단 성세아이들병원, 031-657-1451, 경기도 평택시 조개터로42번길 61 (합정동)  ,127.1060634,36.9904105
1503,의료법인우리의료재단김포우리병원, 031-999-1000, 경기도 김포시 감암로 11 (걸포동)  ,126.7107331,37.6323325
1504,의료법인운양의료재단장스365의원, 031-550-3134, 경기도 구리시 체육관로74번길 80 (수택동) ,127.1426756,37.5912424
1505,의료법인인봉의료재단뉴고려병원, 031-980-9114, 경기도 김포시 김포한강3로 283 (장기동)  뉴고려병원 ,126.6602289,37.6409296
1506,의료법인일심의료재단우리병원, 031-542-0222, 경기도 포천시 소흘읍 호국로 661661,127.1481116,37.8274803
1507,의료법인칠석의료재단사랑의병원, 031-439-3000, 경기도 안산시 상록구 예술광장로 69 (성포동)  사랑의병원 ,126.8447816,37.3270215
1510,이강소아과의원, 031-862-2281, 경기도 동두천시 동두천로 238 (생연동) ,127.0559535,37.9026991
1513,이기범소아청소년과의원, 031-433-7950, 경기도 시흥시 정왕대로 74 (정왕동)  A동 202호 ,126.7247169,37.3532795
1517,이담소아청소년과의원, 031-237-7588, 경기도 수원시 권선구 세류로34번길 6 (세류동)  2층 ,127.0075965,37.2617767
1519,이동우가정의학과의원, 031-718-5752, 경기도 광주시 오포읍 신현로 72   2층,127.1547042,37.3604474
1523,이룸이비인후과의원, 031-571-5075, 경기도 남양주시 진접읍 해밀예당1로 30   4층 401호,127.1864502,37.711783
1524,이룸주니어소아청소년과의원, 031-571-7119, 경기도 남양주시 진접읍 해밀예당1로 30   4층 404호,127.1864502,37.711783
1526,이명기내과의원, 031-572-0990, 경기도 남양주시 진접읍 장현로 70 (대명상가)  202호 ,127.1814943,37.7169401
1527,이박소아청소년과의원, 031-761-2246, 경기도 광주시 포돌이로 1 (탄벌동)  ,127.2508392,37.414762
1532,이소아청소년과의원, 031-335-5944, 경기도 용인시 처인구 금령로 91 (김량장동)  ,127.206341,37.2355989
1533,이소아청소년과의원, 031-753-3918, 경기도 성남시 수정구 수정로 115 (태평동) 3층,127.1330113,37.4415531
1535,이수용소아청소년과의원, 032-668-1782, 경기도 부천시 장말로 294 (심곡동)  2층 ,126.7746387,37.4911967
1536,이수의원, 031-235-5725, 경기도 화성시 용주로 9 (안녕동)  ,127.0157623,37.2054057
1542,이시만소아청소년과의원, 031-749-6064, 경기도 성남시 중원구 광명로 384 (금광동)  2층 ,127.1685251,37.4467609
1545,이안의원, 031-631-7901, 경기도 이천시 설봉로 28 (중리동)  ,127.4378056,37.2788625
1547,이안한방병원, 031-378-1151, 경기도 오산시 대원로 23 (원동)  ,127.071025,37.1465667
1548,이영도가정의학과의원, 031-917-8281, 경기도 고양시 일산동구 대산로 28 (정발산동)  501호 ,126.7735871,37.6704592
1557,이의원, 031-386-5533, 경기도 안양시 동안구 관악대로 213 (비산동) ,126.9466686,37.4004819
1560,이재균내과의원, 031-873-0013, 경기도 의정부시 의정로 191 (가능동)  ,127.0341666,37.7499182
1562,이정례의원, 032-612-2164, 경기도 부천시 성주로 74 (송내동) ,126.7645344,37.4798736
1567,이준각가정의학과의원, 02-353-8253, 경기도 고양시 덕양구 동송로 69 (삼송동)  2층 ,126.8952561,37.6526249
1568,이즈맘산부인과의원, 02-2066-3588, 경기도 광명시 오리로 889 (철산동)  2층-6층 ,126.8637188,37.4763117
1572,이진의원, 031-227-9260, 경기도 화성시 봉담읍 삼천병마로 1276 (양지빌딩)  2층 ,126.9488061,37.2197501
1574,이천365의원, 031-636-3650, 경기도 이천시 안흥로 70 (갈산동) ,127.4553125,37.284094
1575,이천성모의원, 031-633-3113, 경기도 이천시 서희로71번길 33 (창전동)  2층 ,127.4411738,37.2822082
1576,이천파티마병원, 031-635-2624, 경기도 이천시 경충대로 2560-2 (중리동)  ,127.4490305,37.2747641
1577,이태광내과의원, 031-752-9600, 경기도 성남시 중원구 둔촌대로 163 (성남동)  3층 ,127.1367845,37.4298584
1579,이함내과의원, 031-531-7574, 경기도 포천시 왕방로 130 (신읍동)  ,127.1925398,37.8950103
1580,이향주내과의원, 031-273-7445, 경기도 수원시 영통구 태장로 77 (망포동) ,127.0547783,37.2393846
1582,이형근의원, 031-295-8400, 경기도 수원시 권선구 삼천병마로 1601 (오목천동)  2층 ,126.9632867,37.2454985
1583,이혜경소아청소년과의원, 031-699-5795, 경기도 하남시 신장로 159 (덕풍동)  2층 ,127.2013744,37.5399451
1586,이화가정의원, 031-421-7588, 경기도 안양시 동안구 흥안대로 502 (관양동) ,126.9774707,37.3987927
1588,이화소아과의원, 031-313-9696, 경기도 시흥시 신천3길 25 (신천동)  ,126.7834233,37.4387622
1589,이화소아청소년과의원, 031-207-6755, 경기도 수원시 장안구 서부로2105번길 29 (율전동)  1층 ,126.9685435,37.2967791
1591,이화소아청소년과의원, 031-998-5727, 경기도 김포시 풍무로 20 (풍무동)  2층 ,126.7211127,37.5976796
1596,인계365힐링의원, 031-232-3650, 경기도 수원시 팔달구 인계로 53 (인계동)  3층 ,127.0237317,37.2695076
1597,인제대학교일산백병원, 031-910-7114, 경기도 고양시 일산서구 주화로 170 (대화동)  ,126.7504081,37.6742855
1599,일동제일의원, 031-417-0380, 경기도 안산시 상록구 도매시장로 102 (일동)  1층 ,126.8640889,37.3144422
1605,임가정의원, 031-683-0516, 경기도 평택시 포승읍 여술로 21 (선구빌딩)  2층 ,126.8450349,36.9882894
1607,임내과의원, 02-2614-9111, 경기도 광명시 광복로 64 (철산동)  2층 ,126.8655855,37.4896557
1608,임내과의원, 031-867-6793, 경기도 동두천시 큰시장로 43 (생연동)  ,127.0530012,37.9001927
1609,임란규소아과의원, 02-2614-3626, 경기도 광명시 광명로 886 (광명동)  ,126.8539729,37.477951
1611,임소아청소년과의원, 031-858-7582, 경기도 양주시 고암길 306-77 (덕정동)  ,127.0686085,37.8367622
1615,장내과의원, 031-294-8768, 경기도 수원시 장안구 서부로 2149 (율전동)  5층 ,126.9722628,37.3001857
1617,장메디의원, 032-655-2332, 경기도 부천시 부일로 403 (심곡동) 우성빌딩2층 장메디의원,126.7751688,37.4872176
1619,장소아청소년과의원, 031-758-7079, 경기도 성남시 수정구 탄리로 120 (태평동)  2층 ,127.13433,37.44638
1621,장안내과의원, 031-246-1888, 경기도 수원시 장안구 경수대로 965 (송죽동)  6층 ,127.0049857,37.3038604
1623,장원규내과의원, 031-861-7583, 경기도 양주시 평화로1435번길 5-3 (덕계동) ,127.045758,37.8192143
1624,장이비인후과의원, 031-271-5075, 경기도 수원시 장안구 만석로19번길 25-3 (천천동)  6층 ,126.9832684,37.2963185
1626,장이비인후과의원, 031-455-1771, 경기도 군포시 군포로 530 (당동)  2층 ,126.9462269,37.3531968
1630,재단법인 원불교 원광종합병원, 031-8077-7200, 경기도 화성시 화산북로 21 (송산동)  ,127.0079849,37.2101716
1631,재단법인에스알희망나눔 희망의원, 031-994-3518, 경기도 고양시 일산서구 중앙로 1388 (주엽동)  태영프라자 동관2층동 ,126.7659235,37.668663
1632,전민철소아청소년과의원, 031-267-2277, 경기도 수원시 권선구 권선로509번길 2 (세류동)  ,127.0074209,37.2639084
1635,전소아청소년과의원, 031-591-4758, 경기도 남양주시 경춘로 1316 (평내동)  4층 ,127.2385828,37.650674
1640,정가정의원, 032-344-5100, 경기도 부천시 소사로102번길 59 (소사본동)  ,126.8008109,37.4690816
1641,정가정의학과의원, 031-232-7123, 경기도 수원시 영통구 영통로290번길 23 상가동 201호 (영통동 신나무실주공아파트),127.0622608,37.2517994
1645,정내과의원, 032-673-7582, 경기도 부천시 중동로 410 (삼정동)  ,126.7704131,37.5163753
1647,정다운가정의학과의원, 031-762-7550, 경기도 광주시 장지1길 28 (장지동) ,127.2451923,37.3961433
1649,정다운이비인후과의원, 02-2611-7582, 경기도 광명시 도덕로 41 (광명동)  1층 ,126.8523754,37.4688249
1650,정미성소아과의원, 031-917-8275, 경기도 고양시 일산서구 일산로 580 (일산동) ,126.7641945,37.6796537
1652,정샘소아청소년과의원, 031-413-5575, 경기도 시흥시 목감남서로 9-27 (조남동)  3층 306호 ,126.8534361,37.3779464
1656,정수암소아과의원, 032-672-7796, 경기도 부천시 소사로 750 (원종동) ,126.8051427,37.5229435
1661,정철성내과의원, 031-215-6003, 경기도 수원시 영통구 동수원로 524 (매탄동) ,127.0477796,37.2730821
1662,제일365소아청소년과의원, 031-497-6063, 경기도 시흥시 정왕대로 220 (정왕동)  304호 ,126.7376783,37.3455872
1664,제일내과의원, 031-404-2228, 경기도 시흥시 하중로 199 (하중동)  2층 ,126.805,37.3939892
1666,제일봄소아청소년과의원, 031-8031-0201, 경기도 용인시 처인구 중부대로 1347 (김량장동) ,127.194553,37.2352777
1667,제일성모의원, 031-269-8055, 경기도 수원시 장안구 서부로2181번길 46 (율전동)  ,126.9701562,37.3032772
1668,제일소아과의원, 031-543-7541, 경기도 포천시 소흘읍 송우로 79 (삼화프라자)  2층 203호 ,127.1402824,37.8299227
1669,제일의원, 031-295-0986, 경기도 수원시 권선구 금호로 19 (호매실동) ,126.9540375,37.2688167
1672,조규홍소아과의원, 031-232-4556, 경기도 수원시 팔달구 중부대로 94 (인계동)  ,127.0269345,37.2765552
1674,조명득의원, 031-970-3838, 경기도 고양시 덕양구 용현로53번길 49 (행신동)  ,126.8345067,37.6188743
1675,조앤박이비인후과의원, 031-269-7582, 경기도 수원시 장안구 대평로 80 (정자동) ,126.9935851,37.2955081
1676,조은가정의학과의원, 031-768-3515, 경기도 광주시 중앙로 88 (역동)  2층 ,127.2595052,37.4077947
1678,조은맘소아청소년과의원, 031-528-5145, 경기도 남양주시 진접읍 해밀예당3로 57 (진원프라자)  301호 ,127.1978395,37.7148299
1679,조은미래산부인과의원, 031-992-6622, 경기도 김포시 김포한강8로 396 (구래동)  지오타워 4층 402호 ,126.6251107,37.6432764
1680,조은미래의원, 031-992-6677, 경기도 김포시 김포한강8로 396 (구래동)  지오타워 4층 404호 ,126.6251107,37.6432764
1683,조은소아청소년과의원, 031-946-6231, 경기도 파주시 조리읍 봉천로 22-222,126.8092343,37.7433177
1684,조은오산병원, 031-373-1805, 경기도 오산시 오산로 307 (오산동)  ,127.0681975,37.1542012
1686,조은이비인후과의원, 031-241-9006, 경기도 수원시 장안구 창룡대로 197 (연무동) ,127.031781,37.2927063
1688,조은이비인후과의원, 031-693-5075, 경기도 용인시 기흥구 동백중앙로 352 (동백동)  ,127.1594626,37.2821725
1691,조현정소아과의원, 031-826-0272, 경기도 의정부시 신곡로 8 (신곡동)  2층 ,127.0567208,37.7273204
1692,조호성소아과의원, 031-841-4846, 경기도 의정부시 추동로 15 (신곡동)  ,127.0577988,37.7432494
1693,좋은가정의원, 031-434-1719, 경기도 시흥시 정왕시장길 62 (정왕동)  4층 ,126.74934,37.3460707
1697,좋은이비인후과의원, 031-772-7582, 경기도 양평군 양평읍 시민로 34   2층,127.4954747,37.4900644
1699,주내과의원, 031-227-7555, 경기도 수원시 장안구 서부로 2107 (율전동)  ,126.9701167,37.2968604
1703,준내과의원, 031-239-1188, 경기도 수원시 권선구 덕영대로 1093 (세류동)  ,127.0116792,37.2540292
1709,중앙내과의원, 031-593-8273, 경기도 남양주시 화도읍 비룡로 62 (중앙프라자)  404호 ,127.3020998,37.657523
1710,중앙산부인과의원, 031-313-3333, 경기도 시흥시 복지로 77 (대야동)  ,126.7905171,37.4462577
1711,중앙소아청소년과의원, 031-313-3331, 경기도 시흥시 대야로 34 (대야동)  2층 ,126.7901915,37.4462272
1712,중앙의원, 031-666-3369, 경기도 평택시 탄현로 317 (신장동)  ,127.0552767,37.0807513
1713,중앙의원, 031-675-8968, 경기도 안성시 대덕면 서동대로 4723   3층,127.2255919,37.0131929
1714,중앙의원, 031-964-6111, 경기도 고양시 덕양구 통일로 795 (관산동)  ,126.8621927,37.6884669
1715,중앙의원, 032-349-0439, 경기도 부천시 부흥로 487 (소사동)  ,126.7925372,37.4847241
1718,지앤미의원, 032-679-8412, 경기도 부천시 오정로220번길 35 (오정동)  ,126.7855943,37.5268374
1719,지엔산부인과의원, 031-668-0075, 경기도 평택시 비전5로 3 (비전동)  ,127.111611,36.9999179
1720,지엔연세소아청소년과의원, 031-663-0025, 경기도 평택시 비전5로 3 (비전동)  1층 ,127.111611,36.9999179
1722,지엠연세가정의학과의원, 02-2039-0780, 경기도 광명시 광덕산로 33 (하안동)  효현빌딩 4층 ,126.8720569,37.4709425
1725,진내과의원, 031-965-5995, 경기도 고양시 일산동구 위시티로 81 (식사동)  ,126.8114595,37.679223
1727,진소아청소년과의원, 031-573-7521, 경기도 남양주시 오남읍 양지로240번길 37   상가동 203호 이편한세상아파트,127.1954641,37.6993779
1730,차메디컬센터의원, 031-354-8775, 경기도 화성시 향남읍 발안로 107   태성프라자 3층,126.9223234,37.1317539
1731,차성철내과의원, 031-942-5119, 경기도 파주시 광탄면 등원로 527 (광탄농협)  4층 ,126.8450504,37.7828735
1734,차의과학대학교분당차병원, 031-780-5000, 경기도 성남시 분당구 야탑로 59 (야탑동)  ,127.1254535,37.4102384
1737,참가정의원, 031-222-5667, 경기도 수원시 권선구 권선로 639 (권선동)  2층 ,127.0215258,37.260799
1742,참사랑의원, 031-502-4077, 경기도 안산시 상록구 부곡로 28 (부곡동)  ,126.8597511,37.3250111
1743,참사랑의원, 031-559-0075, 경기도 남양주시 화도읍 수레로 1165 (장흥빌딩)  3층 ,127.3031178,37.6412594
1745,참사랑의원, 032-672-7174, 경기도 부천시 오정로 216 (오정동)  ,126.7838058,37.5275301
1747,참소아청소년과의원, 031-293-3392, 경기도 수원시 권선구 금호로 230 (탑동)  ,126.9752978,37.2752516
1748,참소아청소년과의원, 031-572-5535, 경기도 남양주시 퇴계원면 퇴계원로 30 (보성빌딩)  2층 ,127.1412617,37.6493694
1750,참조은병원, 031-767-7575, 경기도 광주시 광주대로 45 (경안동)  ,127.2602519,37.4109455
1751,참조은소아청소년과의원, 031-268-8355, 경기도 수원시 장안구 서부로2197번길 47-1 (율전동)  4층 ,126.9701751,37.304157
1752,참조은의원, 031-251-9377, 경기도 수원시 장안구 연무로 42-1 (연무동)  ,127.0269336,37.2951619
1753,참조은의원, 031-434-5805, 경기도 시흥시 오이도어시장로 22 (정왕동)  2~5층 ,126.6899906,37.3444849
1756,청담우리의원, 031-963-6444, 경기도 고양시 덕양구 유산길 3 (내유동)  ,126.8436584,37.7254866
1757,청북삼성내과의원, 031-683-7570, 경기도 평택시 청북읍 안청로 336 (골드테라스)  304호 ,126.9157481,37.0179751
1759,청학의원, 031-821-6600, 경기도 남양주시 별내면 청학로68번길 13 (삼화빌딩)  2층 ,127.1193697,37.7085641
1760,청학제일의원, 031-841-7585, 경기도 남양주시 별내면 청학로114번길 10 (한영빌딩)  3층 ,127.1146599,37.7091655
1761,초림플러스내과의원, 031-715-4500, 경기도 성남시 분당구 백현로101번길 25 (수내동)  4층 ,127.1132938,37.3780623
1762,초앤유여성병원, 032-326-0095, 경기도 부천시 중동로248번길 19 (중동) ,126.7697951,37.5019346
1764,최동욱의원, 031-441-2035, 경기도 안양시 만안구 안양로 145-1 (안양동)  ,126.9306192,37.3873513
1766,최소아과의원, 031-356-0533, 경기도 화성시 남양읍 남양성지로 139-1   3층 303호,126.8183619,37.2090062
1767,최소아청소년과의원, 031-275-4963, 경기도 용인시 기흥구 강남동로100번길 5-1 (상하동)  ,127.1371936,37.2727995
1769,최소아청소년과의원, 031-472-4132, 경기도 안양시 만안구 안양로 455 (석수동)  2층 ,126.9113074,37.4105444
1772,최소아청소년과의원, 031-930-7799, 경기도 고양시 덕양구 중앙로 450 (행신동)  3층 303호 ,126.8455218,37.6184122
1774,최유상소아청소년과의원, 031-656-5077, 경기도 평택시 평택로32번길 22 (평택동)  ,127.0890999,36.9910109
1775,최은경소아청소년과의원, 032-611-2327, 경기도 부천시 부천로 110-1 (원미동)  1층 ,126.7853713,37.4940538
1776,최응덕소아과의원, 031-484-3131, 경기도 안산시 상록구 화랑로 501 (성포동)  302호 ,126.843725,37.3207333
1778,최의원, 031-904-6167, 경기도 고양시 일산동구 일산로 211 (마두동)  ,126.7893384,37.6549288
1780,최진현소아청소년과의원, 031-575-1700, 경기도 남양주시 진접읍 해밀예당3로 61 (중앙프라자)  301호 ,127.1977543,37.7151655
1781,최학붕가정의학과의원, 031-242-3353, 경기도 수원시 장안구 장안로 226 (정자동)  ,126.9943349,37.3026424
1782,추규열외과의원, 031-393-3999, 경기도 군포시 금산로 92 (산본동)  ,126.9372309,37.3702522
1783,추내과의원, 031-829-8275, 경기도 의정부시 발곡로 34 (신곡동)  3층 ,127.0586478,37.7308975
1784,추미애가정의학과의원, 031-763-4684, 경기도 광주시 포돌이로 4 (탄벌동)  ,127.2507549,37.4152864
1785,추병원, 031-845-8343, 경기도 의정부시 평화로 650 (의정부동) ,127.0450722,37.7497899
1786,충훈미소이비인후과의원, 031-471-5550, 경기도 안양시 만안구 충훈로 83 (석수동)  3층 ,126.8989644,37.4074554
1789,코끼리이비인후과의원, 02-890-2520, 경기도 광명시 광명로 896 (광명동) ,126.854508,37.4788752
1790,코랄이비인후과의원, 031-353-8286, 경기도 화성시 향남읍 상신하길로298번길 7-1   4층 401호,126.9102809,37.114991
1791,코모키이비인후과의원, 031-241-8005, 경기도 수원시 장안구 정조로 950 (영화동)  ,127.012027,37.2922484
1792,코미이비인후과의원, 031-792-6987, 경기도 하남시 미사강변대로 222 (망월동)  502호503호 ,127.1842218,37.5695152
1796,코아이비인후과의원, 031-319-3220, 경기도 시흥시 배곧3로 80 (정왕동)  센터프라자 5층 508호 ,126.7290674,37.3705496
1798,코아이비인후과의원, 031-692-8276, 경기도 안성시 공도읍 서동대로 3874 (태지빌딩)  2층 ,127.1376581,36.9934911
1799,코아이비인후과의원, 031-8005-8875, 경기도 용인시 기흥구 동백중앙로 175 (중동) ,127.154178,37.2699842
1811,코코이비인후과의원, 031-684-7573, 경기도 평택시 청북읍 청북남로 260   211호,126.9153572,37.019508
1814,큰나눔의료소비자생활협동조합녹색드림의원, 031-527-5959, 경기도 남양주시 진접읍 금강로 1445   지층,127.1887332,37.720873
1815,큰나무가정의학과의원, 031-204-9785, 경기도 수원시 영통구 권선로908번길 25 (신동)  3층 ,127.0451835,37.2474322
1817,큰사랑의원, 031-211-7800, 경기도 수원시 팔달구 중부대로223번길 65 (우만동)  2층 ,127.0409741,37.2788241
1818,키즈엠소아청소년과의원, 031-753-7582, 경기도 성남시 중원구 양현로 469 (여수동)  3층 302호 ,127.13438,37.4169846
1828,태림내과의원, 031-443-0250, 경기도 안양시 만안구 박달로 421 (박달동)  ,126.8992962,37.4020638
1830,태소아과의원, 032-682-6072, 경기도 부천시 오정로 250 (오정동)  ,126.7865658,37.5295046
1831,태전연세가정의학과의원, 031-765-5041, 경기도 광주시 태봉로43번길 6 (태전동)  2층 ,127.2300089,37.3889551
1832,태전연세이비인후과의원, 031-765-5075, 경기도 광주시 태봉로43번길 6 (태전동)  ,127.2300089,37.3889551
1833,태평수소아청소년과의원, 031-753-7534, 경기도 성남시 수정구 수정로 115-1 (태평동)  5층 ,127.1332511,37.4416273
1834,태평우리의원, 031-848-0072, 경기도 의정부시 태평로 174 (의정부동)  ,127.049287,37.7477098
1836,퇴계원중앙의원, 031-571-8042, 경기도 남양주시 퇴계원면 퇴계원로 5151,127.1418059,37.6514397
1838,트리니티소아청소년과의원, 031-356-8728, 경기도 화성시 남양읍 시청로 109   301호,126.8257965,37.2012262
1840,튼튼사랑소아청소년과의원, 031-253-7572, 경기도 수원시 장안구 금당로39번길 34 (조원동)  ,127.0192584,37.3025443
1841,튼튼소아과의원, 031-984-7849, 경기도 김포시 풍무로 85 (풍무동)  ,126.7213952,37.603279
1845,튼튼소아청소년과의원, 032-345-0600, 경기도 부천시 역곡로14번길 3 (역곡동)  2층 ,126.8114935,37.4866185
1847,파미에의원, 031-388-1930, 경기도 안양시 동안구 동안로 119 (호계동)  킴스아울렛 10층 ,126.9515747,37.3891932
1850,파주연합의원, 031-941-4868, 경기도 파주시 탄현면 하늘소로 106 (정림빌딩)  ,126.7016318,37.7744376
1854,편안한내과의원, 031-966-0333, 경기도 고양시 덕양구 혜음로 36 (고양동)  2층 ,126.9022405,37.7036307
1861,평촌훼밀리의원, 031-421-5494, 경기도 안양시 동안구 흥안대로434번길 19-21 (평촌동)  ,126.9763354,37.3935306
1864,포일의원, 031-425-4852, 경기도 의왕시 내손중앙로 52 (내손동)  ,126.9809025,37.38607
1866,포천신경외과의원, 031-535-8802, 경기도 포천시 중앙로 73 (신읍동)  ,127.1998949,37.8935317
1870,푸른성모이비인후과의원, 031-758-0758, 경기도 성남시 수정구 수정로 205 (태평동)  3층 ,127.142523,37.4444037
1872,푸른소아청소년과의원, 031-555-6800, 경기도 구리시 이문안로 80 (수택동)  3층 ,127.140316,37.5919873
1874,푸른소아청소년과의원, 031-864-0561, 경기도 의정부시 용민로 483 (민락동)  보광프라자 207호 ,127.1180815,37.7507562
1877,푸른의원, 031-656-7582, 경기도 안성시 공도읍 진사길 32 (아)상가)  (주은청설,127.1387855,36.989917
1880,푸른이비인후과의원, 031-657-4835, 경기도 안성시 공도읍 공도로 77   2층,127.1695637,36.9996128
1883,풍림연세의원, 031-653-3537, 경기도 안성시 공도읍 서동대로 4081 (아)상가)  2층 (주은풍림,127.1597072,36.9981375
1885,프라미스소아청소년과의원, 031-873-8575, 경기도 의정부시 민락로 210 (민락동)  3층 ,127.1023641,37.7431843
1890,플러스소아청소년과의원, 031-226-3655, 경기도 수원시 팔달구 효원로 257 (인계동) ,127.0301263,37.2627781
1892,필산부인과의원, 031-441-9111, 경기도 안양시 만안구 안양로 368 (안양동)  ,126.9173945,37.4041785
1893,필외과의원, 031-217-7582, 경기도 수원시 팔달구 팔달문로 156-1 (우만동)  ,127.0331475,37.2828576
1894,하나가정의원, 031-409-7870, 경기도 안산시 상록구 영화6길 25 (사동)  2층 ,126.8521364,37.2806459
1897,하나내과의원, 031-446-1199, 경기도 안양시 만안구 안양로 259 (안양동)  2층 ,126.9236301,37.3957263
1899,하나로연합의원, 031-573-7588, 경기도 구리시 산마루로 18 (갈매동)  ,127.116157,37.6312699
1900,하나로이비인후과의원, 031-241-5075, 경기도 수원시 장안구 정자천로 163 (정자동)  ,126.9940908,37.294974
1901,하나산부인과의원, 031-677-7700, 경기도 안성시 안성맞춤대로 1043 (서인동)  ,127.2690239,37.0065991
1902,하나소아과의원, 031-315-7585, 경기도 시흥시 은행로 92 (은행동)  ,126.7974586,37.4397183
1904,하나소아청소년과의원, 031-224-7584, 경기도 수원시 권선구 곡선로50번길 33 (곡반정동)  2층 ,127.0291808,37.2373455
1905,하나소아청소년과의원, 031-425-7585, 경기도 의왕시 포일로 26 (내손동)  ,126.976023,37.3887259
1906,하나소아청소년과의원, 031-469-8655, 경기도 안양시 만안구 태평로52번길 31 (안양동)  302호 ,126.9309602,37.3959406
1913,하나의원, 032-343-1636, 경기도 부천시 경인로484번길 21 (괴안동)  ,126.8099774,37.4825555
1914,하나이비인후과의원, 031-238-0100, 경기도 수원시 권선구 덕영대로1201번길 34 (권선동)  3층 ,127.0229059,37.2505817
1919,하늘가정의학과의원, 031-852-4264, 경기도 의정부시 송양로 29 (낙양동)  2층 203호 ,127.1092637,37.7523043
1920,하늘담은의원, 031-826-2715, 경기도 의정부시 가능로50번길 7 (가능동)  2층 ,127.0366955,37.7463228
1928,한결소아과의원, 031-976-1990, 경기도 고양시 일산서구 고양대로675번길 32 (일산동)  2층 ,126.7718405,37.6855913
1935,한림대학교동탄성심병원, 031-8086-2047, 경기도 화성시 큰재봉길 7 (석우동)  ,127.0801288,37.2166284
1936,한마음가정의원, 031-296-8904, 경기도 수원시 권선구 상탑로 106 (서둔동)  1층 ,126.9826879,37.2708576
1937,한마음가정의학과의원, 031-267-1590, 경기도 수원시 장안구 이목로 24 (정자동)  상가2동 202호 ,126.983604,37.309401
1939,한마음내과의원, 031-251-5375, 경기도 수원시 장안구 창룡대로 189 (연무동)  ,127.0306057,37.2925731
1941,한마음소아청소년과의원, 031-269-7559, 경기도 수원시 장안구 만석로19번길 11-7 (천천동)  203호 ,126.9834044,37.2953458
1942,한마음소아청소년과의원, 031-482-9119, 경기도 안산시 단원구 광덕동로 75 (고잔동)  사또타워 105호 ,126.8324497,37.311181
1948,한미의원, 032-657-6893, 경기도 부천시 성주로 200 (심곡본동)  ,126.7784412,37.478301
1950,한빛가정의원, 031-335-7533, 경기도 용인시 처인구 금령로173번길 10 (마평동)  ,127.2158113,37.2348741
1952,한빛소아청소년과의원, 031-222-7257, 경기도 수원시 권선구 덕영대로 1093 (세류동)  ,127.0116792,37.2540292
1953,한빛여성병원, 031-410-3316, 경기도 안산시 단원구 광덕동로 53 (고잔동)  ,126.83226,37.3091291
1955,한빛이비인후과의원, 031-559-8575, 경기도 남양주시 화도읍 비룡로 62 (중앙프라자)  405호 ,127.3020998,37.657523
1959,한사랑내과의원, 031-411-1475, 경기도 안산시 단원구 선부로 223 (와동)  2층 ,126.819949,37.3417064
1960,한사랑내과의원, 031-521-7599, 경기도 남양주시 와부읍 덕소로97번길 61 (은산빌딩)  4층 ,127.2183374,37.5880376
1962,한사랑연세의원, 031-798-2030, 경기도 광주시 오포읍 고산길 4   4층,127.2317556,37.3700719
1963,한사랑의원, 031-501-2202, 경기도 안산시 상록구 본오로 64 (본오동)  2층 ,126.8665608,37.290746
1965,한사랑의원, 031-879-5297, 경기도 양주시 광적면 가래비8길 7 (수국빌딩 2층)  ,126.9847024,37.8243956
1970,한솔가정의학과의원, 031-415-0603, 경기도 안산시 상록구 샘골로 38 (본오동)  2층 ,126.8640291,37.2873358
1971,한솔의원, 031-744-0574, 경기도 성남시 수정구 수정로356번길 11 (산성동)  3층 ,127.1511069,37.4553525
1974,한신의원, 031-754-7541, 경기도 성남시 중원구 광명로 17 (성남동)  3층 ,127.131061,37.433401
1977,한양대학교구리병원, 031-560-2846, 경기도 구리시 경춘로 153 (교문동) ,127.1324273,37.6012985
1979,한양의원, 031-312-9795, 경기도 시흥시 신천로7번길 22 (신천동)  ,126.7918382,37.4318119
1980,한양의원, 031-401-1441, 경기도 안산시 단원구 와동로7길 2 (와동) ,126.8278061,37.3402817
1985,한＆김소아청소년과의원, 031-632-0672, 경기도 이천시 부발읍 대산로 476-13 (덕원빌딩)  2층 ,127.4795433,37.2598691
1987,해담의원, 031-366-7582, 경기도 화성시 남양읍 남양성지로 143 (CMS)  3층 ,126.8187803,37.2093085
1988,해드림가정의학과의원, 031-985-0061, 경기도 김포시 고촌읍 김포대로 344 (정다운 가)  4층 ,126.7706258,37.6016078
1991,해맑은소아청소년과의원, 031-442-7595, 경기도 안양시 만안구 장내로 68 (안양동)  2층 ,126.9163066,37.3940554
1993,해맑은소아청소년과의원, 031-575-2926, 경기도 남양주시 별내중앙로 63 (별내동)  301호 ,127.1228396,37.64791
1994,해맑은소아청소년과의원, 031-858-9573, 경기도 양주시 회정로 132 (덕정동)  402호 ,127.0679613,37.8372543
1997,해밀소아청소년과의원, 031-856-7582, 경기도 남양주시 별내면 청학로중앙길 9 (청화빌딩)  2층 ,127.1184248,37.7087047
1998,해비치소아청소년과의원, 031-527-2300, 경기도 남양주시 오남읍 진건오남로512번길 4 (동명프라자)  2층 ,127.2094006,37.6792642
1999,해성산부인과의원, 031-868-0868, 경기도 동두천시 정장로 34 (생연동)  ,127.0545175,37.9040561
2002,해와달소아청소년과의원, 031-821-8237, 경기도 양주시 고읍남로 6 (광사동)  401호 ,127.0801453,37.7956827
2003,해우리의료소비자생활협동조합해우리의원, 031-271-7779, 경기도 수원시 장안구 장안로 262 (정자동)  3층 ,126.9920536,37.3054877
2004,해피본산부인과의원, 031-8059-8866, 경기도 화성시 향남읍 행정중앙2로 69-17 (HB메디컬빌딩)  3~5층 ,126.9228181,37.1303595
2005,햇님소아청소년과의원, 031-792-3055, 경기도 하남시 미사강변대로 222 (망월동)  401호 ,127.1842218,37.5695152
2006,햇빛가정의학과의원, 031-972-8911, 경기도 고양시 덕양구 중앙로472번길 79 (행신동)  1층 ,126.8439881,37.6225826
2010,행복가득산부인과의원, 031-708-5600, 경기도 성남시 분당구 서현로 435 (분당동)  2층 3호 ,127.1450527,37.3741954
2012,행복의원, 031-872-2311, 경기도 의정부시 평화로 152 (호원동)  3층 ,127.0483408,37.7054008
2017,행복한가정의학과의원, 031-269-0092, 경기도 수원시 장안구 하률로12번길 86 (천천동)  ,126.9772271,37.3009238
2019,행복한가족의원, 031-374-7528, 경기도 오산시 동부대로 355 (고현동)  3층 ,127.0778719,37.1337594
2020,행복한내과의원, 031-745-8275, 경기도 성남시 중원구 금상로 18 (상대원동)  2층 ,127.1597224,37.4375133
2023,행복한소아청소년과의원, 031-576-3211, 경기도 남양주시 와부읍 덕소로97번길 80 (덕소아이파크상가)  201호 ,127.2202758,37.5883847
2024,행복한소아청소년과의원, 031-764-7337, 경기도 광주시 순암로36번길 130 (장지동)  ,127.2451286,37.3967555
2027,행신연세가정의학과의원, 031-979-7200, 경기도 고양시 덕양구 무원로54번길 62 (행신동)  ,126.8329752,37.6188767
2031,향남봄소아청소년과의원, 031-8059-7995, 경기도 화성시 향남읍 행정중앙2로 33 (성지프라자)  302~303호 ,126.9191094,37.1300376
2032,향남삼성내과의원, 031-8059-0575, 경기도 화성시 향남읍 향남로 392 (우성메디피아)  501호 ,126.921449,37.1300483
2033,향남연세소아청소년과의원, 031-8059-3322, 경기도 화성시 향남읍 행정중앙2로 39 (태성메디칼프라자)  301호 ,126.9196476,37.130001
2034,허연무내과의원, 032-667-9361, 경기도 부천시 경인로 134 (송내동) ,126.7703294,37.4838548
2035,허원이비인후과의원, 031-222-7582, 경기도 수원시 권선구 세권로212번길 3 (권선동)  2층 ,127.0274158,37.254712
2038,현가정의원, 031-654-0875, 경기도 평택시 평남로 722 (비전동) ,127.1143493,36.9942243
2040,현대가정의원, 031-415-0103, 경기도 안산시 상록구 도매시장로 105-1 (일동) ,126.8641111,37.3150008
2042,현대가정의원, 031-691-6311, 경기도 평택시 팽성읍 안정로39번길 3232,127.0470252,36.9611161
2044,현대가정의학과의원, 031-873-6633, 경기도 의정부시 태평로 21 (의정부동)  ,127.0493468,37.7350224
2047,현대연합의원, 031-635-7282, 경기도 이천시 부발읍 무촌로 139 (부발프라자)  2층 ,127.4879337,37.2844655
2048,현대의원, 032-671-1764, 경기도 부천시 삼작로 278 (도당동)  ,126.7923466,37.5200498
2052,현대중앙의원, 031-746-5584, 경기도 성남시 중원구 은이로 8 (은행동)  ,127.1649953,37.4575079
2053,현리김창선의원, 031-584-9677, 경기도 가평군 조종면 현창로38번길 4-1 (서울프라자약국)  ,127.3487711,37.8185095
2057,현소아청소년과의원, 032-321-0021, 경기도 부천시 길주로 237 (중동)  ,126.7689171,37.5045009
2058,현제의원, 031-419-5377, 경기도 안산시 상록구 초당로 52 (사동)  2층 ,126.8532166,37.2846439
2059,현화가정의원, 031-683-7582, 경기도 평택시 안중읍 안현로서6길 7474,126.9211442,36.9847743
2060,현화배내과의원, 031-686-9991, 경기도 평택시 안중읍 안현로서8길 17 (현화메디컬센터)  4층 ,126.9233436,36.9787385
2062,호소아청소년과의원, 031-403-0077, 경기도 시흥시 목감우회로 39 (목감동)  4층 405호 ,126.8603361,37.381899
2064,호소아청소년과의원, 031-911-3325, 경기도 고양시 일산서구 현중로 8 (탄현동)  탄현마을16단지 ,126.768829,37.6915898
2065,호소아청소년과의원, 031-983-9108, 경기도 김포시 통진읍 김포대로2244번길 20 (마송프라자)  304호 ,126.5975881,37.6909308
2067,홍동선소아과의원, 031-424-8114, 경기도 안양시 동안구 관악대로 345 (관양동) ,126.961174,37.404122
2069,홍소아청소년과의원, 031-996-1175, 경기도 김포시 풍무로 167 (풍무동) ,126.7241217,37.609964
2070,홍순철소아청소년과의원, 031-575-8575, 경기도 남양주시 진접읍 장현천로 28 (우경메디프라자)  503호 ,127.183807,37.7191977
2072,홍진희소아청소년과의원, 031-273-7582, 경기도 수원시 영통구 영통로214번길 9 (영통동)  ,127.0576271,37.2466049
2074,화서의원, 031-297-1199, 경기도 수원시 팔달구 일월로22번길 17 (화서동) ,126.9807407,37.2859821
2076,화전성모의원, 02-3158-0172, 경기도 고양시 덕양구 화랑로 20-2 (화전동)  2층 ,126.8714726,37.6007232
2077,황가정의학과의원, 031-911-0766, 경기도 고양시 일산서구 대산로 55 (주엽동) ,126.770531,37.6712909
2080,황인선소아과의원, 031-671-1771, 경기도 안성시 인지1길 9-8 (인지동)  ,127.2676326,37.0054927
2084,효산의료재단 샘여성병원, 031-467-1000, 경기도 안양시 만안구 안양로 215 (안양동)  ,126.9259875,37.3928367
2086,효원산부인과의원, 031-256-5577, 경기도 수원시 장안구 정조로 985 (정자동)  ,127.009352,37.2948901
2087,희망의원, 031-406-5556, 경기도 안산시 상록구 반석로 77 (본오동)  1층 ,126.8683863,37.2967981
2088,희망찬병원, 031-221-6999, 경기도 화성시 병점중앙로 174 (진안동) ,127.0373964,37.2131952
2091,힐메디의원, 031-985-7572, 경기도 김포시 고촌읍 수기로 67-39 (수기마을힐스테이트2단지 상가동)  201호 ,126.7676523,37.59639
2092,365병원, 055-248-0365, 경상남도 창원시 마산회원구 3·15대로 686 (석전동)  ,128.5794822,35.2337576
2094,C＆J미래여성병원, 055-276-9200, 경상남도 창원시 의창구 원이대로 53 (도계동)  ,128.6343924,35.2576778
2097,SCH서울아동병원, 055-647-0778, 경상남도 통영시 중앙로 334-1 (무전동)  6~9층층 ,128.4291943,34.8600837
2098,가족사랑의원, 055-298-9778, 경상남도 창원시 마산회원구 봉양로 29 (양덕동)  ,128.5905294,35.2217201
2101,강내과의원, 055-221-1002, 경상남도 창원시 마산합포구 산호북6길 26 (산호동)  ,128.5868554,35.2190947
2104,강소아청소년과의원, 055-741-2443, 경상남도 진주시 촉석로186번길 3 (대안동)  ,128.0825875,35.1949555
2108,거제아동병원, 055-632-8225, 경상남도 거제시 동문천로 52 (고현동) ,128.6262587,34.8828723
2109,거제아동의원, 055-633-0028, 경상남도 거제시  거제중앙로 1925 (고현동)  402호 ,128.6221057,34.8898098
2110,거제통증연합의원, 055-681-4000, 경상남도 거제시 능포로 126 (능포동)  ,128.7315146,34.8749497
2112,경상남도마산의료원, 055-249-1000, 경상남도 창원시 마산합포구 3·15대로 231 (중앙동3가)  ,128.5656858,35.1991422
2113,경상대학교병원, 055-750-8000, 경상남도 진주시 강남로 79 (칠암동) ,128.0956717,35.1763252
2114,계룡내과의원, 055-634-2828, 경상남도 거제시 고현로14길 25 (고현동)  계룡내과의원 ,128.6279099,34.8861871
2118,고운맘산부인과의원, 055-231-8118, 경상남도 창원시 마산회원구 내서읍 경남대로 937 (고운맘산부인과의원)  ,128.5041133,35.2337876
2123,굿모닝의원, 055-327-7511, 경상남도 김해시 분성로727번길 11 (지내동) ,128.9224297,35.2315537
2125,권형진소아과의원, 055-746-7746, 경상남도 진주시 진양호로 344 (신안동)  1층 ,128.06802,35.1832789
2126,근로복지공단 창원병원, 055-282-5111, 경상남도 창원시 성산구 창원대로 721 (중앙동)  ,128.6717512,35.2187539
2129,김기민소아청소년과의원, 055-545-2802, 경상남도 창원시 진해구 충장로 133 (여좌동)  ,128.6666834,35.1524617
2130,김내과의원, 055-832-5599, 경상남도 사천시 주공로 25 (벌리동)  2층 ,128.0863342,34.9407123
2132,김병수의원, 055-884-0750, 경상남도 하동군 하동읍 중앙로 1717,127.7506494,35.0702032
2133,김부진소아청소년과의원, 055-325-4369, 경상남도 김해시 활천로 190 (어방동)  1층 ,128.9006946,35.2419178
2137,김소아청소년과의원, 055-945-0654, 경상남도 거창군 거창읍 거창대로 100 (선보프라자)  301호 ,127.9151,35.6903679
2138,김승기소아과의원, 055-757-5006, 경상남도 진주시 도동천로 84 (상대동)  3층 ,128.1097226,35.1791432
2139,김양수소아청소년과의원, 055-742-5336, 경상남도 진주시 대신로 477 (초전동)  2층 ,128.1157182,35.2032371
2141,김인기내과의원, 055-314-3651, 경상남도 김해시 계동로23번길 3-19 (관동동) ,128.7957101,35.1775554
2142,김제원내과의원, 055-256-1808, 경상남도 창원시 마산회원구 양덕동2길 5 (양덕동)  3층 ,128.5899583,35.221815
2145,김지용 소아청소년과 의원, 055-388-6600, 경상남도 양산시 물금읍 새실로 38   애플타운 4층,128.9943985,35.3132955
2146,김해미래산부인과의원, 055-334-6969, 경상남도 김해시 분성로 316 (서상동)  ,128.8805435,35.2332217
2147,김해복음병원, 055-330-8888, 경상남도 김해시 활천로 33 (삼정동)  김해복음병원 ,128.8931625,35.2306263
2148,김해성심의원, 055-334-6660, 경상남도 김해시 금관대로 1177 (외동)  ,128.8519584,35.2326903
2150,김현수이비인후과의원, 055-232-7520, 경상남도 창원시 마산회원구 내서읍 삼계4길 17 (메디팜중앙약국)  ,128.5036432,35.233003
2154,녹십자의원, 055-287-6565, 경상남도 창원시 성산구 원이대로883번길 15-34 (가음동)  ,128.6969954,35.2084798
2155,누리봄소아청소년과의원, 055-762-0702, 경상남도 진주시 금산면 중천로 80   4층 401호,128.1457363,35.2176379
2158,늘푸른산부인과의원, 055-551-1300, 경상남도 창원시 진해구 충장로 163 (여좌동)  ,128.6699795,35.1523661
2159,다솜소아청소년과의원, 055-638-2728, 경상남도 거제시 상동1길 18-9 (상동동) ,128.6405685,34.865232
2160,닥터강의원, 055-383-5070, 경상남도 양산시 물금읍 서들로 148   504호,129.0066871,35.3118186
2165,더나은의원, 055-646-8080, 경상남도 통영시 광도면 죽림4로 9 (이마트통영점)  2층 ,128.4179997,34.8871334
2167,도담소아청소년과의원, 055-375-0119, 경상남도 양산시 물금읍 새실로 42 (JK타원)  403호 ,128.9946423,35.3131463
2169,동산소아청소년과의원, 055-533-9696, 경상남도 창녕군 창녕읍 창녕시장길 87   2층,128.4967485,35.5413293
2170,동원내과의원, 055-242-7500, 경상남도 창원시 마산회원구 회원북13길 5 (회원동)  ,128.570592,35.2216059
2172,동인의원, 055-335-3590, 경상남도 김해시 평전로 211 (내동)  ,128.8645417,35.2470999
2174,루가의원, 055-682-2857, 경상남도 거제시 능포로 122-1 (능포동)  ,128.7315994,34.8744137
2175,류승환내과의원, 055-232-8520, 경상남도 창원시 마산회원구 내서읍 삼계6길 14 (포인포) ,128.5034806,35.2327981
2179,명가의원, 055-365-7583, 경상남도 양산시 신명로 85 (평산동)  101호 ,129.143999,35.386708
2181,명소아청소년과의원, 055-388-8768, 경상남도 양산시 양주로 46 (남부동)  3층 ,129.0282637,35.3313967
2184,모아이비인후과의원, 055-363-7509, 경상남도 양산시 물금읍 삽량로 40 (세종메디칼)  503호 ,129.0136497,35.3293035
2185,무동의원, 055-255-2434, 경상남도 창원시 의창구 북면 동곡로 17 (2층 203호)  ,128.5852867,35.317955
2187,문영일이비인후과의원, 055-251-3542, 경상남도 창원시 의창구 팔용로 428 (팔용동)  ,128.61278,35.2545844
2188,물금연합소아청소년과의원, 055-364-7581, 경상남도 양산시 물금읍 신주로 49 (물금빌딩)  4층 401호 ,129.0169403,35.3327099
2191,미래아동병원, 055-756-6557, 경상남도 진주시 진주대로953번길 6-1 (강남동)  ,128.0875217,35.1852449
2192,미래연합소아청소년과의원, 055-342-3696, 경상남도 김해시 진영읍 장등로19번길 41 (유니온빌딩202호)  ,128.7302753,35.3083185
2194,미르아이병원, 055-716-1275, 경상남도 밀양시 미리벌중앙로 67 (삼문동)  2~4층 ,128.7484543,35.4837441
2197,미즈맘소아청소년과의원, 055-638-4689, 경상남도 거제시 거제중앙로 1729 (상동동)  ,128.6317816,34.8740036
2198,미즈맘여성의원, 055-688-9123, 경상남도 거제시 거제중앙로 1729 (상동동)  ,128.6317816,34.8740036
2200,민소아청소년과의원, 055-326-3396, 경상남도 김해시 삼안로 223 (삼방동)  ,128.9108894,35.2479315
2201,민영진소아청소년과의원, 055-755-2570, 경상남도 진주시 동진로 175 (상대동)  2층 ,128.1104733,35.1798349
2204,박내과의원, 055-584-3300, 경상남도 함안군 가야읍 남경길 32 (함안메디컬센터 2층)  ,128.4095942,35.2787239
2205,박내과의원, 055-688-0703, 경상남도 거제시 옥포로 228 (옥포동)  ,128.6909639,34.8952505
2206,박성원이비인후과의원, 055-687-7502, 경상남도 거제시 옥포로 221 (옥포동)  ,128.6905873,34.8945128
2207,박성희소아청소년과의원, 055-252-8575, 경상남도 창원시 의창구 읍성로 49-1 (중동) ,128.6232751,35.2651775
2212,박지영소아청소년과의원, 055-649-7795, 경상남도 통영시 광도면 죽림1로 17-51 (동성프라자) ,128.4151892,34.879769
2215,반림소아청소년과의원, 055-266-7208, 경상남도 창원시 성산구 반송로 148-6 (반림동)  미건빌딩 3층 301호 ,128.6712539,35.2359539
2217,베데스다병원, 055-384-9901, 경상남도 양산시 신기로 28 (신기동)  ,129.0435967,35.3532155
2220,보람산부인과의원, 055-747-2112, 경상남도 진주시 진양호로 255 (평거동)  ,128.0625655,35.1767654
2221,보람소아청소년과의원, 055-747-4975, 경상남도 진주시 진양호로 255 (평거동)  ,128.0625655,35.1767654
2223,봉암중앙의원, 055-256-3337, 경상남도 창원시 마산회원구 봉암북4길 8 (봉암동) ,128.5965875,35.2211944
2224,봉의원, 055-288-0181, 경상남도 창원시 의창구 창이대로 201 (봉곡동)  ,128.6594475,35.245006
2225,부성병원, 055-339-8811, 경상남도 김해시 번화1로 36 (대청동)  ,128.8008805,35.1907487
2228,사랑의원, 055-743-7857, 경상남도 진주시 진양호로 477 (인사동)  ,128.0774075,35.1915937
2229,사랑해소아청소년과연합의원, 055-323-3360, 경상남도 김해시 율하1로 110 (율하동)  4층 401호 ,128.8156338,35.1727964
2231,사천서울아동병원, 055-852-8175, 경상남도 사천시 사천읍 선평길 17 (서울아동병원)  ,128.0914199,35.0801544
2234,삼성아동병원, 055-320-0900, 경상남도 김해시 삼계중앙로 36 (삼계동)  6~8층 ,128.8689797,35.2602669
2236,삼성정형외과의원, 055-231-0008, 경상남도 창원시 마산회원구 내서읍 삼계4길 3434,128.5038924,35.2336261
2239,새봄소아청소년과의원, 055-637-7582, 경상남도 거제시 수양로 456-5 (수월동)  상명빌딩 3층 302호 ,128.6406962,34.8929517
2241,새삼성내과의원, 055-231-5502, 경상남도 창원시 마산회원구 내서읍 삼계4길 3434,128.5038924,35.2336261
2244,서울가정의학과의원, 055-242-7583, 경상남도 창원시 마산합포구 현동4길 4 (우산동)  에스빌딩동 3층 3.4호 ,128.5532141,35.1514983
2245,서울내과의원, 055-758-3679, 경상남도 진주시 동진로 126 (상대동)  ,128.1048836,35.1791829
2249,서울아동병원, 055-231-8175, 경상남도 창원시 마산회원구 내서읍 삼계로 2 (삼계웰빙프라자빌딩) ,128.5044424,35.2323777
2252,서울아동병원, 055-633-7599, 경상남도 거제시 서문로5길 6 (고현동)  ,128.6210351,34.8891741
2260,선이고운의원, 055-633-4488, 경상남도 거제시 거제중앙로 1863 (고현동)  2층 ,128.6247591,34.8845954
2262,성소아청소년과의원, 055-323-5123, 경상남도 김해시 함박로101번길 8 (외동)  ,128.8655683,35.2328415
2263,성신가정의학과의원, 055-741-7655, 경상남도 진주시 진주대로 1206 (봉곡동)  2층 ,128.0713168,35.1944334
2267,세진의원, 055-648-3316, 경상남도 통영시 도남로 181 (도남동)  ,128.4239525,34.8296396
2273,시원이비인후과의원, 055-296-7582, 경상남도 창원시 의창구 북면 감계로 306   2층 201호,128.5943183,35.3019634
2274,신가정의학과의원, 055-334-0522, 경상남도 김해시 금관대로1193번길 12 (외동)  ,128.8525919,35.2343684
2275,신내과의원, 055-853-8971, 경상남도 사천시 사천읍 진삼로 1480 (동아빌딩)  1층 ,128.0862919,35.0834425
2277,신선경소아청소년과의원, 055-752-7875, 경상남도 진주시 도동천로 43 (상대동)  2층 ,128.1056183,35.1787371
2278,신세계내과의원, 055-526-4411, 경상남도 창녕군 남지읍 남지중앙로 112 (광산빌딩2층))  (,128.4817623,35.3920706
2280,신세계소아청소년과의원, 055-642-2052, 경상남도 통영시 광도면 죽림2로 49-10 (미래메디칼센타)  401호 ,128.4186518,34.8805109
2284,아이맘소아청소년과의원, 055-386-8275, 경상남도 양산시 물금읍 야리로 31 (경남프라자)  4층 406호 ,129.0018932,35.3167338
2285,아이맘소아청소년과의원, 055-761-2215, 경상남도 진주시 초북로 46 (초전동)  2층 ,128.1114892,35.2125689
